,City,Lat,Lng,Max Temp,Humidity,Cloudiness,Wind Speed,Country,Current Description,Rain inches (last 3 hrs),Snow inches (last 3 hrs),Date
0,Aguimes,27.91,-15.45,66.2,63,20,16.11,ES,few clouds,0.0,0.0,2020-04-19 22:52:18
1,Itarema,-2.92,-39.92,77.83,86,18,3.76,BR,light rain,0.77,0.0,2020-04-19 22:52:18
2,Kodiak,57.79,-152.41,44.6,87,75,9.17,US,broken clouds,0.0,0.0,2020-04-19 22:52:18
3,Clyde River,70.47,-68.59,5.0,71,1,16.11,CA,clear sky,0.0,0.0,2020-04-19 22:52:19
4,Mombasa,-4.05,39.66,76.66,87,100,10.31,KE,light rain,0.44,0.0,2020-04-19 22:52:19
5,Ushuaia,-54.8,-68.3,41.0,86,90,21.92,AR,drizzle,0.0,0.0,2020-04-19 22:48:01
6,Hobart,-42.88,147.33,53.01,87,75,6.93,AU,shower rain,0.0,0.0,2020-04-19 22:51:09
7,Arraial Do Cabo,-22.97,-42.03,73.67,70,96,4.79,BR,overcast clouds,0.0,0.0,2020-04-19 22:52:13
8,Rikitea,-23.12,-134.97,77.07,67,100,5.99,PF,overcast clouds,0.0,0.0,2020-04-19 22:49:40
9,Sioux Lookout,50.1,-91.92,35.6,40,90,16.11,CA,overcast clouds,0.0,0.0,2020-04-19 22:52:20
10,Husavik,66.04,-17.34,44.6,70,36,27.51,IS,scattered clouds,0.0,0.0,2020-04-19 22:52:20
11,Bluff,-46.6,168.33,53.01,74,78,5.99,NZ,light rain,0.2,0.0,2020-04-19 22:52:20
12,Vejprnice,49.73,13.28,45.0,61,5,5.82,CZ,clear sky,0.0,0.0,2020-04-19 22:52:21
13,Macroom,51.9,-8.95,48.2,87,75,9.17,IE,broken clouds,0.0,0.0,2020-04-19 22:52:21
14,Hilo,19.73,-155.09,82.4,48,1,12.75,US,clear sky,0.0,0.0,2020-04-19 22:52:21
15,Pochutla,15.74,-96.47,87.8,58,20,17.22,MX,few clouds,0.0,0.0,2020-04-19 22:52:21
16,Shostka,51.86,33.47,33.96,85,67,7.16,UA,broken clouds,0.0,0.0,2020-04-19 22:52:21
17,Bokoro,12.38,17.06,83.55,13,43,8.99,TD,scattered clouds,0.0,0.0,2020-04-19 22:52:22
18,Barrow,71.29,-156.79,14.0,78,90,5.82,US,overcast clouds,0.0,0.0,2020-04-19 22:52:22
19,Roma,43.21,-75.46,44.6,93,90,6.93,US,moderate rain,0.0,0.0,2020-04-19 22:52:22
20,Tongzi,28.78,105.09,62.83,75,100,5.91,CN,light rain,0.58,0.0,2020-04-19 22:52:22
21,San Patricio,19.22,-104.7,77.0,78,5,17.22,MX,clear sky,0.0,0.0,2020-04-19 22:52:23
22,Norman Wells,65.28,-126.83,28.4,68,90,10.29,CA,overcast clouds,0.0,0.0,2020-04-19 22:52:23
23,Tasiilaq,65.61,-37.64,32.0,92,100,1.12,GL,overcast clouds,0.0,0.0,2020-04-19 22:52:23
24,Saint-Philippe,-21.36,55.77,77.0,73,75,13.87,RE,broken clouds,0.0,0.0,2020-04-19 22:52:23
25,Yellowknife,62.46,-114.35,26.6,53,20,18.34,CA,few clouds,0.0,0.0,2020-04-19 22:52:23
26,Hithadhoo,-0.6,73.08,84.76,75,90,10.29,MV,light rain,0.12,0.0,2020-04-19 22:52:24
27,Mishan,45.55,131.88,45.9,65,100,14.9,CN,light rain,0.13,0.0,2020-04-19 22:52:24
28,Isla Mujeres,21.23,-86.73,86.0,66,40,18.34,MX,scattered clouds,0.0,0.0,2020-04-19 22:48:04
29,Georgetown,5.41,100.34,80.01,94,20,3.91,MY,few clouds,0.0,0.0,2020-04-19 22:52:21
30,Busselton,-33.65,115.33,55.99,60,78,20.2,AU,broken clouds,0.0,0.0,2020-04-19 22:52:26
31,Lebu,-37.62,-73.65,55.83,74,100,9.84,CL,overcast clouds,0.0,0.0,2020-04-19 22:48:04
32,Taltal,-25.4,-70.48,60.87,75,0,2.08,CL,clear sky,0.0,0.0,2020-04-19 22:52:27
33,Tiksi,71.69,128.87,14.04,91,94,6.31,RU,overcast clouds,0.0,0.0,2020-04-19 22:52:27
34,Gat,31.61,34.76,64.99,15,1,5.48,IL,clear sky,0.0,0.0,2020-04-19 22:51:01
35,Ugoofaaru,5.67,73.0,85.95,71,30,8.48,MV,scattered clouds,0.0,0.0,2020-04-19 22:52:28
36,Bangkalan,-7.05,112.74,80.31,82,95,2.06,ID,overcast clouds,0.0,0.0,2020-04-19 22:52:28
37,Ocampo,21.65,-101.5,78.98,12,6,16.51,MX,clear sky,0.0,0.0,2020-04-19 22:52:28
38,Avarua,-21.21,-159.78,84.2,66,2,11.41,CK,clear sky,0.0,0.0,2020-04-19 22:52:28
39,New Norfolk,-42.78,147.06,53.01,90,100,7.74,AU,light rain,0.0,0.0,2020-04-19 22:52:29
40,Victor Harbor,-35.57,138.62,63.0,80,94,5.99,AU,overcast clouds,0.0,0.0,2020-04-19 22:52:29
41,Igrim,63.19,64.42,31.96,97,31,8.08,RU,scattered clouds,0.0,0.0,2020-04-19 22:52:29
42,Thompson,55.74,-97.86,23.0,79,90,6.93,CA,light snow,0.0,0.0,2020-04-19 22:52:29
43,Tolaga Bay,-38.37,178.3,67.62,62,98,2.71,NZ,overcast clouds,0.0,0.0,2020-04-19 22:52:30
44,Kruisfontein,-34.0,24.73,67.21,49,20,4.18,ZA,few clouds,0.0,0.0,2020-04-19 22:52:30
45,Kurilsk,45.23,147.88,36.79,79,31,12.73,RU,scattered clouds,0.0,0.0,2020-04-19 22:52:30
46,Dingle,11.0,122.67,83.32,76,89,12.44,PH,light rain,0.59,0.0,2020-04-19 22:52:30
47,Aklavik,68.22,-135.01,21.2,53,90,4.7,CA,overcast clouds,0.0,0.0,2020-04-19 22:52:31
48,San Carlos De Bariloche,-41.15,-71.31,50.0,61,75,17.22,AR,broken clouds,0.0,0.0,2020-04-19 22:52:31
49,Qaanaaq,77.48,-69.36,15.82,84,75,16.4,GL,broken clouds,0.0,0.0,2020-04-19 22:52:31
50,Davidson,36.15,-86.78,57.2,76,90,6.93,US,light rain,0.0,0.0,2020-04-19 22:52:32
51,Bengkulu,-3.8,102.27,78.13,83,84,4.12,ID,broken clouds,0.0,0.0,2020-04-19 22:49:08
52,Saint-Denis,48.92,2.33,55.0,81,94,9.17,FR,mist,0.0,0.0,2020-04-19 22:52:32
53,Cidreira,-30.18,-50.21,68.07,85,0,16.93,BR,clear sky,0.0,0.0,2020-04-19 22:52:33
54,Atuona,-9.8,-139.03,82.89,73,38,12.97,PF,scattered clouds,0.0,0.0,2020-04-19 22:52:33
55,Cervo,43.67,-7.41,48.0,1,43,3.27,ES,scattered clouds,0.0,0.0,2020-04-19 22:52:33
56,Oranjemund,-28.55,16.43,59.0,94,18,1.23,NA,few clouds,0.0,0.0,2020-04-19 22:52:33
57,Iqaluit,63.75,-68.51,3.2,65,20,6.93,CA,few clouds,0.0,0.0,2020-04-19 22:52:34
58,Albany,42.6,-73.97,61.0,48,90,1.01,US,light rain,0.22,0.0,2020-04-19 22:52:34
59,Codrington,-38.27,141.97,60.48,60,62,23.73,AU,light rain,0.18,0.0,2020-04-19 22:52:34
60,Cherskiy,68.75,161.3,9.03,93,100,7.92,RU,light snow,0.0,0.16,2020-04-19 22:52:34
61,Takhli,15.26,100.34,82.99,78,53,8.14,TH,broken clouds,0.0,0.0,2020-04-19 22:52:35
62,Erdenet,49.03,104.08,24.67,55,83,12.28,MN,broken clouds,0.0,0.0,2020-04-19 22:52:35
63,Talara,-4.58,-81.27,75.07,71,20,11.79,PE,few clouds,0.0,0.0,2020-04-19 22:52:35
64,Yumen,40.28,97.2,42.33,25,36,13.89,CN,scattered clouds,0.0,0.0,2020-04-19 22:52:36
65,Lang Son,21.83,106.73,74.19,82,80,1.95,VN,broken clouds,0.0,0.0,2020-04-19 22:52:36
66,Ostrovnoy,68.05,39.51,25.7,97,74,7.67,RU,broken clouds,0.0,0.0,2020-04-19 22:52:36
67,Mataura,-46.19,168.86,53.01,74,72,5.99,NZ,broken clouds,0.0,0.0,2020-04-19 22:52:36
68,Andenes,69.31,16.12,41.0,93,100,19.46,NO,mist,0.0,0.0,2020-04-19 22:52:36
69,Kaeo,-35.1,173.78,61.0,94,100,4.85,NZ,moderate rain,6.52,0.0,2020-04-19 22:52:37
70,Asau,46.43,26.4,46.4,87,75,9.17,RO,light rain,0.0,0.0,2020-04-19 22:52:37
71,Cabra,37.47,-4.44,59.0,71,21,4.7,ES,few clouds,0.0,0.0,2020-04-19 22:52:37
72,Hamilton,39.18,-84.53,57.2,54,90,8.05,US,overcast clouds,0.0,0.0,2020-04-19 22:52:38
73,Comodoro Rivadavia,-45.87,-67.5,59.0,38,20,23.04,AR,few clouds,0.0,0.0,2020-04-19 22:48:32
74,Tynda,55.17,124.72,18.55,76,67,14.18,RU,broken clouds,0.0,0.0,2020-04-19 22:52:38
75,Pangnirtung,66.15,-65.71,-1.23,85,36,4.12,CA,scattered clouds,0.0,0.0,2020-04-19 22:52:38
76,Port Alfred,-33.59,26.89,69.01,84,14,4.0,ZA,few clouds,0.0,0.0,2020-04-19 22:52:39
77,San Carlos,9.66,-68.58,82.13,62,60,1.23,VE,light rain,0.32,0.0,2020-04-19 22:52:39
78,Nikolskoye,59.7,30.79,37.4,94,40,2.24,RU,scattered clouds,0.0,0.0,2020-04-19 22:49:33
79,Vaini,-21.2,-175.2,80.6,74,40,10.29,TO,scattered clouds,0.0,0.0,2020-04-19 22:52:40
80,Lagoa,39.05,-27.98,56.55,63,23,17.36,PT,few clouds,0.0,0.0,2020-04-19 22:52:40
81,Chokurdakh,70.63,147.92,7.12,94,86,11.52,RU,overcast clouds,0.0,0.0,2020-04-19 22:52:40
82,Lorengau,-2.02,147.27,84.47,75,46,7.65,PG,light rain,0.34,0.0,2020-04-19 22:52:40
83,Tamandare,-8.76,-35.1,80.83,80,26,7.25,BR,light rain,0.32,0.0,2020-04-19 22:52:41
84,Itoman,26.12,127.67,66.2,93,75,23.04,JP,shower rain,0.0,0.0,2020-04-19 22:52:41
85,Bambous Virieux,-20.34,57.76,75.2,83,40,11.41,MU,shower rain,0.0,0.0,2020-04-19 22:52:41
86,Oudtshoorn,-33.59,22.2,60.8,72,0,3.36,ZA,clear sky,0.0,0.0,2020-04-19 22:52:41
87,Dikson,73.51,80.55,34.48,89,90,22.77,RU,overcast clouds,0.0,0.0,2020-04-19 22:52:42
88,Sept-Iles,50.2,-66.38,33.01,97,75,16.11,CA,broken clouds,0.0,0.0,2020-04-19 22:52:42
89,Punta Arenas,-53.15,-70.92,42.8,70,20,26.4,CL,few clouds,0.0,0.0,2020-04-19 22:50:38
90,Tuatapere,-46.13,167.68,53.01,74,35,5.99,NZ,scattered clouds,0.0,0.0,2020-04-19 22:52:42
91,Coihaique,-45.58,-72.07,44.6,81,90,6.93,CL,overcast clouds,0.0,0.0,2020-04-19 22:52:43
92,Victoria,22.29,114.16,75.99,88,85,3.0,HK,overcast clouds,0.0,0.0,2020-04-19 22:48:12
93,East London,-33.02,27.91,76.21,54,0,13.35,ZA,clear sky,0.0,0.0,2020-04-19 22:52:43
94,Touros,-5.2,-35.46,78.8,88,20,3.36,BR,thunderstorm,0.0,0.0,2020-04-19 22:52:43
95,Carahue,-38.7,-73.17,60.8,67,75,5.82,CL,broken clouds,0.0,0.0,2020-04-19 22:52:43
96,Springfield,37.22,-93.3,68.0,42,1,10.29,US,clear sky,0.0,0.0,2020-04-19 22:50:13
97,Mayo,38.89,-76.51,62.01,62,1,10.29,US,clear sky,0.0,0.0,2020-04-19 22:52:44
98,Hermanus,-34.42,19.23,60.01,97,38,1.01,ZA,scattered clouds,0.0,0.0,2020-04-19 22:50:41
99,Ribeira Grande,38.52,-28.7,56.68,63,7,12.53,PT,clear sky,0.0,0.0,2020-04-19 22:52:44
100,Ponta Do Sol,32.67,-17.1,57.99,63,13,1.99,PT,few clouds,0.0,0.0,2020-04-19 22:52:45
101,Cookeville,36.16,-85.5,62.01,77,90,2.71,US,light rain,0.0,0.0,2020-04-19 22:48:50
102,Bubaque,11.28,-15.83,77.02,74,75,13.06,GW,broken clouds,0.0,0.0,2020-04-19 22:52:45
103,Longyearbyen,78.22,15.64,28.4,86,90,36.91,SJ,light snow,0.0,0.0,2020-04-19 22:50:32
104,Port Elizabeth,-33.92,25.57,68.0,68,29,13.87,ZA,scattered clouds,0.0,0.0,2020-04-19 22:52:45
105,Jamestown,42.1,-79.24,48.0,75,90,14.99,US,light rain,0.0,0.0,2020-04-19 22:51:07
106,Torbay,47.67,-52.73,35.01,92,90,33.33,CA,moderate rain,0.0,0.0,2020-04-19 22:52:46
107,Kapaa,22.08,-159.32,78.8,65,1,8.05,US,clear sky,0.0,0.0,2020-04-19 22:52:47
108,Zhigansk,66.77,123.37,17.51,93,100,8.59,RU,overcast clouds,0.0,0.0,2020-04-19 22:52:47
109,Mahibadhoo,3.78,72.97,84.88,74,80,8.12,MV,light rain,1.11,0.0,2020-04-19 22:52:47
110,Bereda,43.27,-7.54,50.0,100,56,0.47,ES,broken clouds,0.0,0.0,2020-04-19 22:52:47
111,Tazovskiy,67.47,78.7,34.27,98,100,9.42,RU,light rain,0.26,0.0,2020-04-19 22:52:47
112,Cape Town,-33.93,18.42,64.0,77,75,17.22,ZA,broken clouds,0.0,0.0,2020-04-19 22:52:48
113,Toktogul,41.87,72.94,52.21,27,0,5.75,KG,clear sky,0.0,0.0,2020-04-19 22:52:48
114,Jumla,29.27,82.18,44.67,31,97,4.59,NP,light rain,0.95,0.0,2020-04-19 22:52:48
115,Merauke,-8.47,140.33,85.15,73,50,10.16,ID,scattered clouds,0.0,0.0,2020-04-19 22:52:49
116,Namatanai,-3.67,152.43,83.53,75,78,6.06,PG,light rain,0.32,0.0,2020-04-19 22:52:49
117,Tessalit,20.2,1.01,80.24,29,0,8.23,ML,clear sky,0.0,0.0,2020-04-19 22:52:49
118,Guerrero Negro,27.98,-114.06,64.09,68,93,21.43,MX,overcast clouds,0.0,0.0,2020-04-19 22:50:07
119,Meulaboh,4.14,96.13,78.84,83,51,3.85,ID,broken clouds,0.0,0.0,2020-04-19 22:52:50
120,Surt,31.21,16.59,69.75,35,96,21.07,LY,overcast clouds,0.0,0.0,2020-04-19 22:52:50
121,Salalah,17.02,54.09,82.4,69,40,4.7,OM,scattered clouds,0.0,0.0,2020-04-19 22:52:50
122,Ingham,42.6,-84.38,52.0,37,40,13.87,US,scattered clouds,0.0,0.0,2020-04-19 22:52:50
123,Mehamn,71.04,27.85,37.4,93,75,19.46,NO,broken clouds,0.0,0.0,2020-04-19 22:52:51
124,Kemin,42.78,75.69,49.41,31,0,4.05,KG,clear sky,0.0,0.0,2020-04-19 22:52:51
125,Esperance,-33.87,121.9,51.8,87,0,8.05,AU,clear sky,0.0,0.0,2020-04-19 22:52:51
126,Bethel,41.37,-73.41,57.2,35,1,10.29,US,clear sky,0.0,0.0,2020-04-19 22:52:52
127,Hovd,48.01,91.64,37.11,36,0,0.54,MN,clear sky,0.0,0.0,2020-04-19 22:52:52
128,Sitka,57.05,-135.33,50.0,81,90,8.05,US,overcast clouds,0.0,0.0,2020-04-19 22:50:43
129,Leningradskiy,69.38,178.42,13.62,92,93,9.06,RU,overcast clouds,0.0,0.0,2020-04-19 22:51:10
130,Butaritari,3.07,172.79,83.39,73,23,8.81,KI,light rain,0.95,0.0,2020-04-19 22:52:53
131,Polignano A Mare,41.0,17.22,63.0,63,99,1.01,IT,overcast clouds,0.0,0.0,2020-04-19 22:52:53
132,Chicama,-7.84,-79.15,74.73,68,16,6.87,PE,few clouds,0.0,0.0,2020-04-19 22:52:53
133,Brigantine,39.41,-74.36,57.2,50,1,9.17,US,clear sky,0.0,0.0,2020-04-19 22:51:15
134,Souillac,-20.52,57.52,75.2,83,40,11.41,MU,shower rain,0.0,0.0,2020-04-19 22:52:54
135,Malpe,13.35,74.72,83.71,77,82,0.54,IN,broken clouds,0.0,0.0,2020-04-19 22:52:54
136,Flin Flon,54.77,-101.86,37.4,55,40,19.46,CA,scattered clouds,0.0,0.0,2020-04-19 22:52:54
137,Faanui,-16.48,-151.75,82.83,75,60,15.23,PF,light rain,0.37,0.0,2020-04-19 22:52:55
138,Totma,59.97,42.76,27.27,96,23,1.81,RU,few clouds,0.0,0.0,2020-04-19 22:52:55
139,Igarka,67.47,86.58,36.64,80,100,24.05,RU,overcast clouds,0.0,0.0,2020-04-19 22:52:55
140,Azogues,-2.73,-78.83,60.8,72,75,1.12,EC,broken clouds,0.0,0.0,2020-04-19 22:52:56
141,Castro,-24.79,-50.01,57.07,70,34,5.88,BR,scattered clouds,0.0,0.0,2020-04-19 22:48:27
142,Walvis Bay,-22.96,14.51,60.8,77,15,3.36,NA,few clouds,0.0,0.0,2020-04-19 22:52:56
143,Yerbogachen,61.28,108.01,23.02,88,0,3.36,RU,clear sky,0.0,0.0,2020-04-19 22:52:56
144,Komsomolskiy,40.43,71.72,57.2,50,0,9.17,UZ,clear sky,0.0,0.0,2020-04-19 22:52:57
145,Kupang,-10.17,123.58,75.2,88,20,5.82,ID,few clouds,0.0,0.0,2020-04-19 22:52:57
146,Bundaberg,-24.85,152.35,69.8,88,2,5.82,AU,clear sky,0.0,0.0,2020-04-19 22:52:57
147,Koumac,-20.57,164.28,82.42,69,99,2.42,NC,moderate rain,3.51,0.0,2020-04-19 22:52:57
148,Asyut,27.18,31.18,64.4,52,0,9.17,EG,clear sky,0.0,0.0,2020-04-19 22:48:39
149,Margate,51.38,1.39,50.0,83,0,5.01,GB,clear sky,0.0,0.0,2020-04-19 22:52:58
150,Khatanga,71.97,102.5,24.04,95,34,5.41,RU,scattered clouds,0.0,0.0,2020-04-19 22:52:58
151,Shenjiamen,29.96,122.3,57.4,80,36,4.5,CN,scattered clouds,0.0,0.0,2020-04-19 22:52:58
152,Baykit,61.67,96.37,26.91,90,1,1.86,RU,clear sky,0.0,0.0,2020-04-19 22:52:59
153,Igbo Ora,7.43,3.28,77.56,83,97,3.56,NG,overcast clouds,0.0,0.0,2020-04-19 22:52:59
154,Saskylakh,71.92,114.08,17.15,95,2,3.6,RU,clear sky,0.0,0.0,2020-04-19 22:52:59
155,Bristol,41.83,-71.17,54.0,57,1,16.11,US,clear sky,0.0,0.0,2020-04-19 22:51:23
156,Bosaso,11.28,49.18,83.1,67,94,1.7,SO,overcast clouds,0.0,0.0,2020-04-19 22:48:44
157,Severo-Kurilsk,50.68,156.12,30.97,91,73,9.89,RU,broken clouds,0.0,0.0,2020-04-19 22:53:00
158,Lafiagi,8.87,5.42,81.37,69,100,6.24,NG,light rain,0.16,0.0,2020-04-19 22:53:00
159,Bitung,1.45,125.18,77.0,94,20,1.12,ID,few clouds,0.0,0.0,2020-04-19 22:53:00
160,Dalby,-27.18,151.27,53.6,62,2,4.41,AU,clear sky,0.0,0.0,2020-04-19 22:53:02
161,Bay Roberts,47.6,-53.26,35.01,1,100,11.99,CA,moderate rain,0.0,0.0,2020-04-19 22:49:34
162,Dangriga,16.97,-88.23,87.8,66,20,11.41,BZ,few clouds,0.0,0.0,2020-04-19 22:53:02
163,San Quintin,30.48,-115.95,62.33,66,87,18.21,MX,overcast clouds,0.0,0.0,2020-04-19 22:51:21
164,Chuy,-33.7,-53.46,64.58,89,23,7.49,UY,few clouds,0.0,0.0,2020-04-19 22:53:03
165,Plainview,40.78,-73.47,54.0,54,1,23.04,US,clear sky,0.0,0.0,2020-04-19 22:53:03
166,Cuamba,-14.8,36.54,66.87,72,23,6.53,MZ,few clouds,0.0,0.0,2020-04-19 22:53:03
167,Nakhon Phanom,17.41,104.78,79.0,87,55,2.77,TH,broken clouds,0.0,0.0,2020-04-19 22:53:03
168,Panaba,21.28,-88.27,88.61,40,39,11.72,MX,scattered clouds,0.0,0.0,2020-04-19 22:53:04
169,Mangrol,21.12,70.12,78.69,70,1,10.11,IN,clear sky,0.0,0.0,2020-04-19 22:53:04
170,Machachi,-0.5,-78.57,62.6,55,75,17.22,EC,broken clouds,0.0,0.0,2020-04-19 22:53:04
171,Bredasdorp,-34.53,20.04,55.4,93,6,4.7,ZA,clear sky,0.0,0.0,2020-04-19 22:49:55
172,Tilichiki,60.47,166.1,16.95,90,91,16.53,RU,overcast clouds,0.0,0.0,2020-04-19 22:53:05
173,Erzurum,40.0,41.5,37.4,86,75,1.12,TR,broken clouds,0.0,0.0,2020-04-19 22:53:05
174,Pundaguitan,6.37,126.17,81.91,81,100,11.81,PH,light rain,1.18,0.0,2020-04-19 22:53:05
175,Rudbar,30.15,62.6,70.36,39,15,2.86,AF,few clouds,0.0,0.0,2020-04-19 22:53:05
176,Caceres,39.52,-6.37,53.01,81,4,1.01,ES,clear sky,0.0,0.0,2020-04-19 22:53:06
177,Hammerfest,70.66,23.68,37.4,93,75,41.38,NO,drizzle,0.0,0.0,2020-04-19 22:53:06
178,Nanortalik,60.14,-45.24,28.4,89,6,9.46,GL,clear sky,0.0,0.0,2020-04-19 22:53:06
179,Broken Hill,-31.95,141.43,68.0,32,40,17.22,AU,scattered clouds,0.0,0.0,2020-04-19 22:49:22
180,Vanimo,-2.67,141.3,82.74,79,100,1.43,PG,moderate rain,6.34,0.0,2020-04-19 22:53:07
181,Alofi,-19.06,-169.92,84.2,79,33,13.87,NU,scattered clouds,0.0,0.0,2020-04-19 22:53:07
182,Le Port,-20.94,55.29,73.4,73,20,9.17,RE,light rain,0.11,0.0,2020-04-19 22:53:07
183,Umm Kaddadah,13.6,26.69,74.03,16,75,10.16,SD,broken clouds,0.0,0.0,2020-04-19 22:53:07
184,Starychi,49.98,23.56,41.0,48,0,6.71,UA,clear sky,0.0,0.0,2020-04-19 22:53:08
185,Klaksvik,62.23,-6.59,42.8,87,1,16.11,FO,clear sky,0.0,0.0,2020-04-19 22:53:08
186,Hay River,60.82,-115.8,33.8,74,75,11.41,CA,broken clouds,0.0,0.0,2020-04-19 22:50:00
187,Usinsk,65.99,57.53,33.19,95,100,9.42,RU,overcast clouds,0.0,0.0,2020-04-19 22:53:09
188,Omsukchan,62.53,155.8,3.99,83,100,6.89,RU,light snow,0.0,0.18,2020-04-19 22:53:09
189,Kudinovo,55.0,36.25,33.8,100,50,4.47,RU,scattered clouds,0.0,0.0,2020-04-19 22:53:10
190,Olafsvik,64.89,-23.71,44.38,91,100,21.25,IS,light rain,1.74,0.0,2020-04-19 22:53:10
191,Provideniya,64.38,-173.3,22.44,95,100,14.94,RU,light snow,0.0,0.66,2020-04-19 22:53:10
192,Hellvik,59.92,5.78,44.01,73,0,2.3,NO,clear sky,0.0,0.0,2020-04-19 22:53:11
193,Katsuura,35.13,140.3,51.01,93,75,4.7,JP,light intensity shower rain,0.0,0.0,2020-04-19 22:53:11
194,Puerto Baquerizo Moreno,-0.9,-89.6,77.88,84,81,11.83,EC,broken clouds,0.0,0.0,2020-04-19 22:53:11
195,Kirkwall,58.98,-2.96,44.6,87,0,13.87,GB,clear sky,0.0,0.0,2020-04-19 22:53:12
196,Tchaourou,8.89,2.6,77.0,75,100,7.56,BJ,light rain,0.46,0.0,2020-04-19 22:53:12
197,Okhotsk,59.38,143.3,15.51,84,3,11.72,RU,clear sky,0.0,0.0,2020-04-19 22:53:12
198,Port Antonio,18.18,-76.46,84.2,74,75,18.34,JM,broken clouds,0.0,0.0,2020-04-19 22:53:13
199,Havre-Saint-Pierre,50.23,-63.6,32.0,90,1,12.75,CA,clear sky,0.0,0.0,2020-04-19 22:53:13
200,Katherine,-14.47,132.27,77.0,65,4,4.16,AU,clear sky,0.0,0.0,2020-04-19 22:53:13
201,Jampur,29.64,70.6,78.22,30,69,7.83,PK,broken clouds,0.0,0.0,2020-04-19 22:53:14
202,Kristiinankaupunki,62.27,21.38,38.8,90,1,3.89,FI,clear sky,0.0,0.0,2020-04-19 22:53:14
203,Quatre Cocos,-20.21,57.76,75.2,83,40,11.41,MU,shower rain,0.0,0.0,2020-04-19 22:53:15
204,Airai,-8.93,125.41,67.21,52,0,2.8,TL,clear sky,0.0,0.0,2020-04-19 22:53:15
205,Gizo,-8.1,156.84,84.88,71,97,2.53,SB,light rain,0.43,0.0,2020-04-19 22:53:15
206,Sakakah,29.97,40.21,69.8,35,2,9.17,SA,clear sky,0.0,0.0,2020-04-19 22:50:27
207,Avera,33.19,-82.53,57.2,94,90,5.82,US,moderate rain,0.0,0.0,2020-04-19 22:53:16
208,Saint George,37.1,-113.58,73.0,28,1,14.99,US,clear sky,0.0,0.0,2020-04-19 22:53:16
209,Carrollton,32.95,-96.89,82.99,57,40,4.7,US,scattered clouds,0.0,0.0,2020-04-19 22:53:16
210,Mana,5.66,-53.78,77.83,89,100,10.16,GF,light rain,1.82,0.0,2020-04-19 22:53:17
211,Jambi,-1.6,103.62,76.96,89,63,0.72,ID,broken clouds,0.0,0.0,2020-04-19 22:53:17
212,Portland,45.52,-122.68,64.99,44,75,4.7,US,broken clouds,0.0,0.0,2020-04-19 22:49:00
213,Vestmannaeyjar,63.44,-20.27,46.08,93,100,28.1,IS,light rain,0.2,0.0,2020-04-19 22:53:18
214,Vila Franca Do Campo,37.72,-25.43,55.4,62,20,6.93,PT,few clouds,0.0,0.0,2020-04-19 22:53:18
215,Paamiut,61.99,-49.67,25.41,90,4,13.49,GL,clear sky,0.0,0.0,2020-04-19 22:53:18
216,Fairbanks,64.84,-147.72,46.99,93,75,2.48,US,broken clouds,0.0,0.0,2020-04-19 22:51:31
217,Carnarvon,-24.87,113.63,71.6,88,49,10.29,AU,scattered clouds,0.0,0.0,2020-04-19 22:53:19
218,Pisco,-13.7,-76.22,73.4,69,0,20.8,PE,clear sky,0.0,0.0,2020-04-19 22:53:19
219,Skuodas,56.27,21.53,33.8,94,0,3.87,LT,clear sky,0.0,0.0,2020-04-19 22:53:19
220,Haukipudas,65.18,25.35,37.4,86,95,3.36,FI,overcast clouds,0.0,0.0,2020-04-19 22:53:20
221,Hurfeish,33.02,35.35,62.01,90,0,8.72,IL,clear sky,0.0,0.0,2020-04-19 22:53:20
222,Correntina,-13.34,-44.64,70.39,78,91,4.81,BR,overcast clouds,0.0,0.0,2020-04-19 22:53:20
223,Kavieng,-2.57,150.8,83.79,75,78,7.14,PG,broken clouds,0.0,0.0,2020-04-19 22:53:21
224,Linqiong,30.42,103.46,64.99,100,98,1.72,CN,light rain,0.15,0.0,2020-04-19 22:53:21
225,West Bay,19.37,-81.42,86.0,74,20,8.05,KY,few clouds,0.0,0.0,2020-04-19 22:53:22
226,Raudeberg,61.99,5.14,41.0,86,0,4.7,NO,clear sky,0.0,0.0,2020-04-19 22:53:22
227,Saldanha,-33.01,17.94,59.0,82,31,12.75,ZA,scattered clouds,0.0,0.0,2020-04-19 22:52:11
228,Sechura,-5.56,-80.82,75.52,69,12,17.02,PE,few clouds,0.0,0.0,2020-04-19 22:53:23
229,Fort Nelson,58.81,-122.7,66.2,56,75,11.41,CA,broken clouds,0.0,0.0,2020-04-19 22:53:23
230,Cabedelo,-6.98,-34.83,78.8,88,20,3.36,BR,few clouds,0.0,0.0,2020-04-19 22:53:23
231,Niedernhausen,50.15,8.32,55.99,40,1,14.99,DE,clear sky,0.0,0.0,2020-04-19 22:53:24
232,Grindavik,63.84,-22.43,46.4,100,90,31.09,IS,light intensity drizzle,0.0,0.0,2020-04-19 22:53:24
233,Ulaanbaatar,47.91,106.88,10.4,66,40,2.24,MN,scattered clouds,0.0,0.0,2020-04-19 22:53:24
234,Mahebourg,-20.41,57.7,75.2,83,40,11.41,MU,shower rain,0.0,0.0,2020-04-19 22:53:25
235,Zarya,55.76,38.1,35.6,93,75,2.24,RU,broken clouds,0.0,0.0,2020-04-19 22:53:25
236,Bac Lieu,9.29,105.72,82.38,73,0,8.19,VN,clear sky,0.0,0.0,2020-04-19 22:53:16
237,Geraldton,-28.77,114.6,55.4,87,0,10.29,AU,clear sky,0.0,0.0,2020-04-19 22:53:25
238,Ancud,-41.87,-73.82,55.4,71,75,8.05,CL,broken clouds,0.0,0.0,2020-04-19 22:53:26
239,Champerico,14.3,-91.92,84.49,64,38,4.7,GT,scattered clouds,0.0,0.0,2020-04-19 22:53:26
240,Vologda,59.22,39.89,31.33,94,12,3.6,RU,few clouds,0.0,0.0,2020-04-19 22:53:26
241,Homer,59.64,-151.55,51.8,57,90,6.93,US,overcast clouds,0.0,0.0,2020-04-19 22:51:11
242,Moree,-29.47,149.85,53.6,71,84,5.82,AU,broken clouds,0.0,0.0,2020-04-19 22:53:27
243,Cap Malheureux,-19.98,57.61,75.2,83,40,11.41,MU,shower rain,0.0,0.0,2020-04-19 22:53:27
244,Port Lincoln,-34.73,135.87,62.22,58,100,15.35,AU,overcast clouds,0.0,0.0,2020-04-19 22:49:52
245,Santa Rosa,14.31,121.11,82.0,74,20,3.36,PH,few clouds,0.0,0.0,2020-04-19 22:53:28
246,Deputatskiy,69.3,139.9,6.67,87,60,6.04,RU,broken clouds,0.0,0.0,2020-04-19 22:53:28
247,Fortuna,40.6,-124.16,57.99,81,90,13.87,US,overcast clouds,0.0,0.0,2020-04-19 22:53:28
248,Kropotkin,45.44,40.58,47.7,70,43,5.48,RU,scattered clouds,0.0,0.0,2020-04-19 22:53:29
249,Juneau,58.3,-134.42,60.8,38,75,18.34,US,broken clouds,0.0,0.0,2020-04-19 22:52:32
250,Lata,40.16,-8.33,54.0,88,56,1.92,PT,broken clouds,0.0,0.0,2020-04-19 22:53:29
251,Nemuro,43.32,145.57,37.92,83,95,15.99,JP,overcast clouds,0.0,0.0,2020-04-19 22:53:29
252,Baker City,44.77,-117.83,66.2,29,1,3.47,US,clear sky,0.0,0.0,2020-04-19 22:48:34
253,Caravelas,-17.71,-39.25,76.08,76,78,15.39,BR,broken clouds,0.0,0.0,2020-04-19 22:53:30
254,Mabai,23.01,104.45,62.58,64,59,3.89,CN,broken clouds,0.0,0.0,2020-04-19 22:53:30
255,Rawson,-43.3,-65.1,62.82,31,94,16.26,AR,overcast clouds,0.0,0.0,2020-04-19 22:53:30
256,Trenggalek,-8.05,111.72,79.09,80,94,1.52,ID,overcast clouds,0.0,0.0,2020-04-19 22:53:30
257,Matara,5.95,80.54,77.85,90,20,7.0,LK,few clouds,0.0,0.0,2020-04-19 22:53:31
258,Nouakchott,18.09,-15.98,68.0,82,0,16.11,MR,clear sky,0.0,0.0,2020-04-19 22:50:12
259,Namibe,-15.2,12.15,75.31,65,19,2.8,AO,light rain,1.52,0.0,2020-04-19 22:53:31
260,Motygino,58.18,94.76,32.45,78,0,10.09,RU,clear sky,0.0,0.0,2020-04-19 22:53:32
261,Acajutla,13.59,-89.83,75.99,89,9,5.01,SV,clear sky,0.0,0.0,2020-04-19 22:51:47
262,Babu,24.42,111.52,68.77,81,70,1.21,CN,broken clouds,0.0,0.0,2020-04-19 22:53:32
263,Dunedin,-45.87,170.5,57.99,36,46,8.01,NZ,scattered clouds,0.0,0.0,2020-04-19 22:53:03
264,Hualmay,-11.1,-77.61,70.61,78,21,8.08,PE,few clouds,0.0,0.0,2020-04-19 22:53:32
265,Kokopo,-4.35,152.26,85.06,68,57,4.14,PG,light rain,0.18,0.0,2020-04-19 22:53:33
266,Juxtlahuaca,17.43,-99.15,81.34,35,68,7.78,MX,broken clouds,0.0,0.0,2020-04-19 22:53:33
267,San Andres,12.58,-81.7,86.0,62,20,10.29,CO,few clouds,0.0,0.0,2020-04-19 22:50:02
268,Kastornoye,51.83,38.13,38.61,77,100,4.7,RU,light rain,0.14,0.0,2020-04-19 22:53:34
269,Hambantota,6.12,81.12,81.68,82,76,9.46,LK,broken clouds,0.0,0.0,2020-04-19 22:53:34
270,Van,38.49,43.38,41.0,86,20,4.7,TR,few clouds,0.0,0.0,2020-04-19 22:53:34
271,Kaitangata,-46.28,169.85,57.0,44,52,8.01,NZ,broken clouds,0.0,0.0,2020-04-19 22:53:35
272,Seoul,37.57,126.98,50.0,76,90,5.55,KR,overcast clouds,0.0,0.0,2020-04-19 22:50:35
273,Hirara,24.8,125.28,75.2,94,75,10.29,JP,shower rain,0.0,0.0,2020-04-19 22:53:35
274,Aksu,41.12,80.26,52.09,51,99,3.0,CN,overcast clouds,0.0,0.0,2020-04-19 22:53:35
275,Santa Vitoria Do Palmar,-33.52,-53.37,64.67,88,24,7.67,BR,few clouds,0.0,0.0,2020-04-19 22:53:36
276,Zyryanovsk,49.74,84.27,41.65,52,0,3.62,KZ,clear sky,0.0,0.0,2020-04-19 22:53:36
277,Monrovia,6.3,-10.8,80.6,94,40,4.88,LR,scattered clouds,0.0,0.0,2020-04-19 22:53:36
278,Cockburn Town,21.46,-71.14,79.18,82,7,16.49,TC,clear sky,0.0,0.0,2020-04-19 22:53:36
279,Colomi,-17.35,-65.87,68.0,32,40,11.41,BO,scattered clouds,0.0,0.0,2020-04-19 22:53:36
280,Gouyave,12.16,-61.73,82.4,74,20,20.8,GD,few clouds,0.0,0.0,2020-04-19 22:53:37
281,Atambua,-9.11,124.89,78.87,67,11,1.95,ID,few clouds,0.0,0.0,2020-04-19 22:49:08
282,Santana,-0.06,-51.18,80.6,100,40,2.24,BR,thunderstorm,0.0,0.0,2020-04-19 22:53:37
283,Nouadhibou,20.93,-17.03,66.2,77,0,19.46,MR,sand,0.0,0.0,2020-04-19 22:53:38
284,Aborlan,9.44,118.55,80.6,83,20,6.93,PH,few clouds,0.0,0.0,2020-04-19 22:53:38
285,Yulara,-25.24,130.99,73.4,38,25,6.93,AU,scattered clouds,0.0,0.0,2020-04-19 22:53:38
286,Narsaq,60.92,-46.05,32.0,89,0,1.12,GL,clear sky,0.0,0.0,2020-04-19 22:53:38
287,Abreu E Lima,-7.91,-34.9,82.4,78,40,9.17,BR,scattered clouds,0.0,0.0,2020-04-19 22:53:39
288,Nizhniy Tsasuchey,50.52,115.13,23.23,72,4,20.45,RU,clear sky,0.0,0.0,2020-04-19 22:53:39
289,Karratha,-20.74,116.85,83.82,61,97,7.52,AU,overcast clouds,0.0,0.0,2020-04-19 22:53:39
290,Hofn,64.25,-15.21,44.04,84,99,8.34,IS,overcast clouds,0.0,0.0,2020-04-19 22:53:40
291,Richards Bay,-28.78,32.04,67.68,79,0,9.53,ZA,clear sky,0.0,0.0,2020-04-19 22:53:40
292,Labuhan,-6.88,112.21,81.0,79,92,2.37,ID,overcast clouds,0.0,0.0,2020-04-19 22:53:41
293,Pervomayskoye,43.92,46.71,48.83,72,28,1.54,RU,scattered clouds,0.0,0.0,2020-04-19 22:53:41
294,Ketchikan,55.34,-131.65,51.8,81,75,14.99,US,broken clouds,0.0,0.0,2020-04-19 22:53:42
295,Rocha,-34.48,-54.33,61.99,81,13,5.77,UY,few clouds,0.0,0.0,2020-04-19 22:51:26
296,Kyabram,-36.32,145.05,62.01,52,100,17.58,AU,overcast clouds,0.0,0.0,2020-04-19 22:53:42
297,Ijui,-28.39,-53.91,64.06,55,0,8.88,BR,clear sky,0.0,0.0,2020-04-19 22:53:43
298,Bembereke,10.23,2.66,78.51,59,97,9.22,BJ,light rain,0.36,0.0,2020-04-19 22:53:43
299,Northam,51.03,-4.22,52.0,70,95,5.99,GB,overcast clouds,0.0,0.0,2020-04-19 22:53:43
300,Zhoucheng,35.91,116.31,56.88,34,53,18.99,CN,broken clouds,0.0,0.0,2020-04-19 22:53:44
301,Anadyr,64.75,177.48,19.4,85,96,4.47,RU,light snow,0.0,0.0,2020-04-19 22:53:44
302,Contamana,-7.33,-75.02,75.43,59,0,2.19,PE,clear sky,0.0,0.0,2020-04-19 22:53:44
303,Ormara,25.21,64.64,77.54,84,66,10.98,PK,broken clouds,0.0,0.0,2020-04-19 22:53:44
304,Bambanglipuro,-7.95,110.28,80.13,80,97,3.74,ID,overcast clouds,0.0,0.0,2020-04-19 22:53:45
305,Isangel,-19.55,169.27,82.4,83,75,15.57,VU,broken clouds,0.0,0.0,2020-04-19 22:53:45
306,San Jeronimo,-11.95,-75.28,45.34,29,50,1.3,PE,light rain,0.25,0.0,2020-04-19 22:53:45
307,Manzanillo,20.34,-77.12,80.04,76,15,4.81,CU,few clouds,0.0,0.0,2020-04-19 22:53:45
308,Clarksburg,39.28,-80.34,62.6,25,40,5.82,US,scattered clouds,0.0,0.0,2020-04-19 22:50:33
309,Armenia,40.0,45.0,48.2,81,100,1.12,AM,light rain,0.63,0.0,2020-04-19 22:53:46
310,Talnakh,69.49,88.4,37.4,74,100,24.61,RU,overcast clouds,0.0,0.0,2020-04-19 22:53:46
311,Iwanai,42.97,140.51,45.57,58,100,6.2,JP,overcast clouds,0.0,0.0,2020-04-19 22:53:46
312,Pevek,69.7,170.31,9.91,94,100,6.98,RU,light snow,0.0,0.14,2020-04-19 22:53:46
313,Alice Springs,-23.7,133.88,80.6,28,1,14.99,AU,clear sky,0.0,0.0,2020-04-19 22:53:47
314,Rajbiraj,26.53,86.75,78.66,45,68,10.83,NP,broken clouds,0.0,0.0,2020-04-19 22:53:47
315,Kavaratti,10.57,72.64,85.08,69,42,5.19,IN,scattered clouds,0.0,0.0,2020-04-19 22:53:47
316,Belyy Yar,53.6,91.39,37.4,59,0,2.24,RU,clear sky,0.0,0.0,2020-04-19 22:53:47
317,Santa Rosalia,27.32,-112.28,75.4,29,85,1.52,MX,overcast clouds,0.0,0.0,2020-04-19 22:53:48
318,Rantepao,-2.97,119.9,72.79,64,63,0.83,ID,broken clouds,0.0,0.0,2020-04-19 22:53:48
319,Imeni Poliny Osipenko,52.42,136.49,25.45,92,100,18.41,RU,light snow,0.0,0.7,2020-04-19 22:53:48
320,Plettenberg Bay,-34.05,23.37,66.9,59,0,4.85,ZA,clear sky,0.0,0.0,2020-04-19 22:53:49
321,Riyadh,24.69,46.72,77.0,44,100,3.36,SA,overcast clouds,0.0,0.0,2020-04-19 22:52:13
322,Karpathos,35.51,27.21,57.2,87,27,5.82,GR,scattered clouds,0.0,0.0,2020-04-19 22:53:49
323,Lavrentiya,65.58,-171.0,21.18,91,100,8.16,RU,overcast clouds,0.0,0.0,2020-04-19 22:53:49
324,Mitchell,43.71,-98.03,51.8,37,20,3.36,US,few clouds,0.0,0.0,2020-04-19 22:53:50
325,Herat,34.5,62.0,53.6,76,0,3.36,AF,clear sky,0.0,0.0,2020-04-19 22:53:50
326,Minab,27.15,57.08,77.0,73,90,4.7,IR,haze,0.0,0.0,2020-04-19 22:53:50
327,Ulladulla,-35.35,150.47,57.99,71,100,8.05,AU,overcast clouds,0.0,0.0,2020-04-19 22:53:50
328,Carutapera,-1.2,-46.02,79.54,85,59,8.99,BR,light rain,0.57,0.0,2020-04-19 22:50:28
329,Ongandjera,-17.88,15.07,72.28,51,71,4.76,NA,broken clouds,0.0,0.0,2020-04-19 22:53:51
330,Noyabrsk,63.2,75.45,34.32,85,64,9.62,RU,broken clouds,0.0,0.0,2020-04-19 22:53:51
331,Kiruna,67.86,20.23,33.8,77,94,4.7,SE,overcast clouds,0.0,0.0,2020-04-19 22:53:51
332,Nalut,30.33,10.85,74.3,29,93,31.0,LY,overcast clouds,0.0,0.0,2020-04-19 22:53:52
333,Derzhavinsk,51.1,66.32,53.47,66,99,6.87,KZ,overcast clouds,0.0,0.0,2020-04-19 22:53:52
334,Itaqui,-29.13,-56.55,68.22,55,0,3.24,BR,clear sky,0.0,0.0,2020-04-19 22:53:52
335,Gravelbourg,49.88,-106.55,52.95,32,98,17.43,CA,overcast clouds,0.0,0.0,2020-04-19 22:53:52
336,Saint-Augustin,51.23,-58.65,28.63,98,100,15.05,CA,light snow,0.0,0.64,2020-04-19 22:53:53
337,Sainte-Marie,-20.9,55.55,73.4,73,29,9.17,RE,scattered clouds,0.0,0.0,2020-04-19 22:53:53
338,Haines Junction,60.75,-137.51,48.24,48,98,9.42,CA,overcast clouds,0.0,0.0,2020-04-19 22:52:35
339,Yichang,30.71,111.28,60.62,82,100,2.21,CN,moderate rain,5.12,0.0,2020-04-19 22:53:54
340,Barahona,18.21,-71.1,78.87,73,3,5.01,DO,clear sky,0.0,0.0,2020-04-19 22:53:54
341,Puerto Ayora,-0.74,-90.35,84.2,70,75,18.34,EC,broken clouds,0.0,0.0,2020-04-19 22:50:48
342,Hopelchen,19.77,-89.85,96.8,44,40,11.41,MX,scattered clouds,0.0,0.0,2020-04-19 22:53:54
343,Menongue,-14.66,17.69,62.1,56,86,4.09,AO,overcast clouds,0.0,0.0,2020-04-19 22:53:54
344,Winton,37.39,-120.61,73.99,40,1,3.36,US,clear sky,0.0,0.0,2020-04-19 22:53:55
345,Patitirion,39.15,23.87,63.0,47,65,1.01,GR,broken clouds,0.0,0.0,2020-04-19 22:53:55
346,Imola,44.35,11.72,61.0,82,100,2.44,IT,light rain,1.79,0.0,2020-04-19 22:53:55
347,Futtsu,35.31,139.82,51.01,91,100,7.0,JP,moderate rain,4.73,0.0,2020-04-19 22:53:56
348,Ballina,-28.87,153.57,66.99,68,0,8.05,AU,clear sky,0.0,0.0,2020-04-19 22:53:56
349,Huangchuan,32.13,115.04,60.8,69,72,3.0,CN,broken clouds,0.0,0.0,2020-04-19 22:53:56
350,Naryan-Mar,67.67,53.09,29.5,98,98,6.33,RU,overcast clouds,0.0,0.0,2020-04-19 22:53:56
351,Aksum,14.12,38.72,64.89,14,96,3.62,ET,overcast clouds,0.0,0.0,2020-04-19 22:53:57
352,Alcantara,-2.41,-44.41,80.6,88,40,10.29,BR,scattered clouds,0.0,0.0,2020-04-19 22:53:57
353,Upernavik,72.79,-56.15,26.91,84,94,26.26,GL,overcast clouds,0.0,0.0,2020-04-19 22:53:57
354,Nanakuli,21.39,-158.15,82.4,61,1,10.29,US,clear sky,0.0,0.0,2020-04-19 22:53:57
355,Helena,46.59,-112.04,59.0,30,75,11.41,US,broken clouds,0.0,0.0,2020-04-19 22:52:32
356,Ixtapa,20.7,-105.2,77.0,73,5,12.75,MX,clear sky,0.0,0.0,2020-04-19 22:53:58
357,Moranbah,-22.0,148.05,79.05,54,15,11.03,AU,few clouds,0.0,0.0,2020-04-19 22:53:58
358,Alekseyevsk,57.84,108.35,23.41,85,0,6.22,RU,clear sky,0.0,0.0,2020-04-19 22:53:58
359,Mitsamiouli,-11.38,43.28,82.63,74,84,12.84,KM,broken clouds,0.0,0.0,2020-04-19 22:53:59
360,Petersberg,50.56,9.71,46.99,51,0,3.0,DE,clear sky,0.0,0.0,2020-04-19 22:53:59
361,Salekhard,66.53,66.6,32.9,95,100,4.36,RU,overcast clouds,0.0,0.0,2020-04-19 22:53:59
362,Limbang,4.75,115.0,80.6,88,75,4.7,MY,broken clouds,0.0,0.0,2020-04-19 22:54:00
363,Vikesa,58.64,6.09,41.0,80,0,2.24,NO,clear sky,0.0,0.0,2020-04-19 22:54:01
364,Tekirdag,40.98,27.51,50.0,81,39,5.53,TR,scattered clouds,0.0,0.0,2020-04-19 22:54:01
365,Vestmanna,62.16,-7.17,42.8,87,6,16.11,FO,clear sky,0.0,0.0,2020-04-19 22:54:01
366,Brae,60.4,-1.35,44.6,81,0,14.99,GB,clear sky,0.0,0.0,2020-04-19 22:54:01
367,Puerto Escondido,15.85,-97.07,86.0,79,5,9.17,MX,clear sky,0.0,0.0,2020-04-19 22:54:01
368,Najran,17.49,44.13,71.6,64,40,9.17,SA,scattered clouds,0.0,0.0,2020-04-19 22:50:19
369,Meadow Lake,34.8,-106.54,72.0,20,75,5.82,US,broken clouds,0.0,0.0,2020-04-19 22:54:02
370,Wamba,8.93,8.6,74.28,73,100,4.0,NG,overcast clouds,0.0,0.0,2020-04-19 22:54:02
371,Kontagora,10.4,5.47,84.07,50,75,8.28,NG,broken clouds,0.0,0.0,2020-04-19 22:54:02
372,Vao,-22.67,167.48,78.03,81,100,15.39,NC,light rain,0.8,0.0,2020-04-19 22:54:03
373,Alta Floresta,-9.88,-56.09,72.99,86,47,0.89,BR,moderate rain,3.01,0.0,2020-04-19 22:54:03
374,Rio Gallegos,-51.62,-69.22,44.6,52,31,23.04,AR,scattered clouds,0.0,0.0,2020-04-19 22:54:03
375,Noumea,-22.28,166.46,78.01,100,100,4.7,NC,heavy intensity rain,0.0,0.0,2020-04-19 22:50:55
376,Tornio,65.85,24.15,35.6,91,77,1.12,FI,broken clouds,0.0,0.0,2020-04-19 22:54:03
377,Lubbock,33.6,-101.83,80.01,16,20,9.17,US,few clouds,0.0,0.0,2020-04-19 22:54:04
378,Kahului,20.89,-156.47,84.2,48,40,10.29,US,scattered clouds,0.0,0.0,2020-04-19 22:54:04
379,Porto Novo,6.5,2.6,80.6,83,40,8.05,BJ,scattered clouds,0.0,0.0,2020-04-19 22:54:04
380,Samarinda,-0.5,117.15,75.11,97,100,1.01,ID,light rain,2.11,0.0,2020-04-19 22:54:05
381,Arlit,18.74,7.39,82.33,12,79,2.08,NE,broken clouds,0.0,0.0,2020-04-19 22:54:05
382,Xuanhua,40.61,115.04,39.96,43,0,32.1,CN,clear sky,0.0,0.0,2020-04-19 22:54:05
383,Arenapolis,-14.45,-56.85,75.09,79,11,1.74,BR,few clouds,0.0,0.0,2020-04-19 22:52:05
384,Garowe,8.41,48.48,77.27,67,32,9.53,SO,scattered clouds,0.0,0.0,2020-04-19 22:54:06
385,Eyl,7.98,49.82,83.3,73,70,5.86,SO,broken clouds,0.0,0.0,2020-04-19 22:54:06
386,Pandan,14.05,124.17,81.75,75,99,7.52,PH,overcast clouds,0.0,0.0,2020-04-19 22:54:07
387,Guhagar,17.48,73.19,82.72,73,7,4.72,IN,clear sky,0.0,0.0,2020-04-19 22:54:07
388,Churapcha,62.0,132.43,13.51,85,0,5.44,RU,clear sky,0.0,0.0,2020-04-19 22:54:08
389,Domoni,-12.26,44.53,81.99,73,71,9.6,KM,light rain,0.33,0.0,2020-04-19 22:54:08
390,Vardo,70.37,31.11,37.4,86,75,21.92,NO,broken clouds,0.0,0.0,2020-04-19 22:54:08
391,Laguna,38.42,-121.42,70.0,52,1,11.41,US,clear sky,0.0,0.0,2020-04-19 22:54:08
392,Mamallapuram,12.63,80.17,84.0,88,40,4.7,IN,scattered clouds,0.0,0.0,2020-04-19 22:54:09
393,Alghero,40.56,8.32,64.4,82,100,3.36,IT,light rain,0.28,0.0,2020-04-19 22:54:09
394,Troitskoye,52.98,84.68,45.09,63,67,1.68,RU,broken clouds,0.0,0.0,2020-04-19 22:54:09
395,Tual,-5.67,132.75,84.58,72,0,6.58,ID,clear sky,0.0,0.0,2020-04-19 22:54:10
396,San Rafael,-34.62,-68.33,66.72,34,1,5.08,AR,clear sky,0.0,0.0,2020-04-19 22:54:10
397,Kandrian,-6.22,149.55,86.27,68,55,5.01,PG,light rain,0.13,0.0,2020-04-19 22:54:10
398,Luderitz,-26.65,15.16,60.8,87,0,8.05,NA,clear sky,0.0,0.0,2020-04-19 22:54:10
399,Kalmunai,7.42,81.82,81.91,79,65,5.12,LK,light rain,0.13,0.0,2020-04-19 22:54:11
400,Chara,56.91,118.26,14.4,73,87,6.02,RU,overcast clouds,0.0,0.0,2020-04-19 22:54:11
401,Beloha,-25.17,45.05,70.92,76,0,16.02,MG,clear sky,0.0,0.0,2020-04-19 22:54:11
402,Maputo,-25.97,32.59,68.0,82,1,5.82,MZ,clear sky,0.0,0.0,2020-04-19 22:54:11
403,Coquimbo,-29.95,-71.34,60.8,87,75,6.93,CL,broken clouds,0.0,0.0,2020-04-19 22:51:03
404,Vostok,46.49,135.88,43.72,45,100,7.34,RU,overcast clouds,0.0,0.0,2020-04-19 22:54:12
405,Makuyuni,-4.73,38.1,70.66,76,100,2.51,TZ,light rain,0.15,0.0,2020-04-19 22:54:12
406,Tres Barras,-26.11,-50.32,55.26,77,48,3.31,BR,scattered clouds,0.0,0.0,2020-04-19 22:54:12
407,Awbari,26.59,12.78,82.09,16,26,23.04,LY,scattered clouds,0.0,0.0,2020-04-19 22:54:13
408,Brignoles,43.4,6.07,55.99,91,100,3.0,FR,light rain,0.23,0.0,2020-04-19 22:54:13
409,Sebrovo,50.1,43.3,40.5,78,22,4.97,RU,few clouds,0.0,0.0,2020-04-19 22:54:13
410,Dafeng,23.45,108.59,75.29,82,38,5.5,CN,scattered clouds,0.0,0.0,2020-04-19 22:54:13
411,Kununurra,-15.77,128.73,78.8,83,72,3.36,AU,broken clouds,0.0,0.0,2020-04-19 22:54:13
412,Arica,-18.48,-70.3,68.0,72,7,6.93,CL,clear sky,0.0,0.0,2020-04-19 22:54:14
413,Mar Del Plata,-38.0,-57.56,68.0,77,29,9.17,AR,scattered clouds,0.0,0.0,2020-04-19 22:52:07
414,Neftcala,39.37,49.25,56.08,81,48,4.38,AZ,scattered clouds,0.0,0.0,2020-04-19 22:54:14
415,Suntar,62.14,117.63,21.45,93,35,4.99,RU,scattered clouds,0.0,0.0,2020-04-19 22:54:15
416,Lanzhou,36.06,103.79,46.0,34,100,8.95,CN,overcast clouds,0.0,0.0,2020-04-19 22:54:15
417,Shache,38.42,77.24,53.47,53,77,4.94,CN,broken clouds,0.0,0.0,2020-04-19 22:54:15
418,Port-Gentil,-0.72,8.78,79.61,81,100,2.37,GA,light rain,0.2,0.0,2020-04-19 22:54:15
419,Nabire,-3.37,135.48,85.96,64,54,1.36,ID,broken clouds,0.0,0.0,2020-04-19 22:54:15
420,Tabuk,17.42,121.44,80.46,74,100,3.42,PH,overcast clouds,0.0,0.0,2020-04-19 22:54:16
421,Foz,43.57,-7.25,50.0,1,43,1.5,ES,scattered clouds,0.0,0.0,2020-04-19 22:54:16
422,Havoysund,71.0,24.66,37.4,93,75,41.38,NO,drizzle,0.0,0.0,2020-04-19 22:54:16
423,Ahipara,-35.17,173.17,63.28,90,100,5.37,NZ,moderate rain,4.04,0.0,2020-04-19 22:54:16
424,Singaparna,-7.35,108.11,75.38,74,62,0.96,ID,broken clouds,0.0,0.0,2020-04-19 22:54:17
425,Plouzane,48.38,-4.62,51.8,81,94,6.93,FR,overcast clouds,0.0,0.0,2020-04-19 22:54:17
426,Vredendal,-31.67,18.5,59.43,92,5,2.55,ZA,clear sky,0.0,0.0,2020-04-19 22:54:17
427,Port Hardy,50.7,-127.42,51.8,76,75,5.82,CA,broken clouds,0.0,0.0,2020-04-19 22:54:17
428,Narrabri,-30.32,149.78,59.0,81,100,4.7,AU,overcast clouds,0.0,0.0,2020-04-19 22:54:18
429,Saquena,-4.67,-73.52,76.01,68,22,1.57,PE,few clouds,0.0,0.0,2020-04-19 22:54:18
430,Shimoda,34.67,138.95,48.99,93,100,11.92,JP,moderate rain,8.52,0.0,2020-04-19 22:54:18
431,Damavand,35.72,52.06,60.8,38,5,4.7,IR,clear sky,0.0,0.0,2020-04-19 22:54:18
432,Solnechnoye,43.28,46.51,46.4,87,35,3.85,RU,scattered clouds,0.0,0.0,2020-04-19 22:54:19
433,Darhan,49.49,105.92,26.94,76,22,8.97,MN,few clouds,0.0,0.0,2020-04-19 22:54:19
434,Cabo San Lucas,22.89,-109.91,80.6,42,5,12.75,MX,clear sky,0.0,0.0,2020-04-19 22:53:40
435,Bunia,1.57,30.25,63.16,66,75,1.03,CD,broken clouds,0.0,0.0,2020-04-19 22:54:19
436,Kattivakkam,13.22,80.32,84.0,88,40,4.7,IN,scattered clouds,0.0,0.0,2020-04-19 22:54:20
437,Rio Tuba,8.51,117.43,83.05,72,81,5.1,PH,light rain,2.08,0.0,2020-04-19 22:54:20
438,Xapuri,-10.65,-68.5,73.74,63,32,1.54,BR,scattered clouds,0.0,0.0,2020-04-19 22:54:20
439,Novolugovoye,54.98,83.11,33.8,80,68,2.24,RU,broken clouds,0.0,0.0,2020-04-19 22:54:21
440,Semey,50.41,80.23,35.6,50,58,4.83,KZ,broken clouds,0.0,0.0,2020-04-19 22:54:21
441,Darnah,32.77,22.64,60.69,60,29,4.12,LY,scattered clouds,0.0,0.0,2020-04-19 22:54:21
442,Liyang,29.71,118.29,55.99,89,6,1.68,CN,clear sky,0.0,0.0,2020-04-19 22:54:21
443,Chapais,49.78,-74.85,21.2,53,75,12.75,CA,broken clouds,0.0,0.0,2020-04-19 22:54:22
444,Parker,32.77,-97.8,81.0,49,27,5.99,US,scattered clouds,0.0,0.0,2020-04-19 22:54:22
445,Forest,37.36,-79.29,64.4,45,75,10.29,US,broken clouds,0.0,0.0,2020-04-19 22:54:22
446,Camalu,30.85,-116.07,66.0,46,97,11.99,MX,overcast clouds,0.0,0.0,2020-04-19 22:54:23
447,San Cristobal,7.77,-72.22,89.6,52,40,2.24,VE,smoke,0.0,0.0,2020-04-19 22:54:23
448,Trzcianka,53.04,16.46,36.97,78,0,5.5,PL,clear sky,0.0,0.0,2020-04-19 22:54:23
449,Salvador,13.83,-88.92,87.8,69,20,14.99,SV,haze,0.0,0.0,2020-04-19 22:54:23
450,Ponta Delgada,37.73,-25.67,55.4,62,20,6.93,PT,few clouds,0.0,0.0,2020-04-19 22:54:24
451,Yenagoa,4.92,6.26,75.58,90,95,1.5,NG,overcast clouds,0.0,0.0,2020-04-19 22:54:24
452,Sinnamary,5.38,-52.95,79.9,84,97,16.82,GF,moderate rain,3.47,0.0,2020-04-19 22:54:24
453,Sisimiut,66.94,-53.67,29.48,92,98,32.91,GL,snow,0.0,3.44,2020-04-19 22:54:25
454,Egvekinot,66.32,-179.17,12.0,90,100,13.62,RU,overcast clouds,0.0,0.0,2020-04-19 22:54:25
455,San Pedro,14.35,121.02,82.0,74,20,3.36,PH,few clouds,0.0,0.0,2020-04-19 22:54:25
456,Begichevskiy,53.8,38.26,39.0,62,99,2.93,RU,overcast clouds,0.0,0.0,2020-04-19 22:54:25
457,Macomb,40.46,-90.67,62.6,58,1,14.99,US,clear sky,0.0,0.0,2020-04-19 22:52:12
458,Los Llanos De Aridane,28.66,-17.92,64.4,72,20,10.29,ES,few clouds,0.0,0.0,2020-04-19 22:54:26
459,Impfondo,1.64,18.07,72.01,87,89,2.3,CG,light rain,0.28,0.0,2020-04-19 22:54:26
460,Ivnya,51.06,36.13,41.0,52,98,2.24,RU,overcast clouds,0.0,0.0,2020-04-19 22:54:27
461,Wroclaw,51.1,17.03,44.01,64,0,4.7,PL,clear sky,0.0,0.0,2020-04-19 22:54:01
462,Nome,64.5,-165.41,39.99,86,90,5.82,US,overcast clouds,0.0,0.0,2020-04-19 22:54:27
463,Port Augusta,-32.5,137.77,66.2,72,97,11.86,AU,overcast clouds,0.0,0.0,2020-04-19 22:54:27
464,Smithfield,41.92,-71.55,55.4,43,1,13.87,US,light rain,0.0,0.0,2020-04-19 22:54:27
465,Cayenne,4.93,-52.33,78.8,94,40,10.85,GF,scattered clouds,0.0,0.0,2020-04-19 22:54:28
466,Batemans Bay,-35.72,150.18,57.99,75,100,10.49,AU,overcast clouds,0.0,0.0,2020-04-19 22:54:28
467,Miandoab,36.97,46.1,51.28,50,29,1.92,IR,scattered clouds,0.0,0.0,2020-04-19 22:54:29
468,Bonavista,48.65,-53.11,32.4,96,100,39.48,CA,moderate rain,5.06,0.0,2020-04-19 22:54:30
469,Margherita,27.28,95.68,67.93,76,64,0.92,IN,light rain,0.14,0.0,2020-04-19 22:54:30
470,Bluefield,37.27,-81.22,64.0,25,20,11.41,US,few clouds,0.0,0.0,2020-04-19 22:54:18
471,Sao Filipe,14.9,-24.5,71.82,74,0,19.71,CV,clear sky,0.0,0.0,2020-04-19 22:54:31
472,Sobolevo,54.43,31.9,31.84,90,1,9.91,RU,clear sky,0.0,0.0,2020-04-19 22:54:31
473,Daru,-9.08,143.21,84.34,76,47,9.24,PG,light rain,0.21,0.0,2020-04-19 22:54:31
474,Goure,13.98,10.27,76.66,15,50,2.95,NE,scattered clouds,0.0,0.0,2020-04-19 22:54:32
475,Hobyo,5.35,48.53,84.02,74,100,9.66,SO,overcast clouds,0.0,0.0,2020-04-19 22:54:32
476,Methoni,36.82,21.7,61.0,87,59,3.36,GR,broken clouds,0.0,0.0,2020-04-19 22:54:32
477,Pangody,65.85,74.49,32.41,95,86,12.08,RU,overcast clouds,0.0,0.0,2020-04-19 22:54:33
478,Saint-Louis,16.33,-15.0,86.0,30,3,6.93,SN,clear sky,0.0,0.0,2020-04-19 22:54:33
479,Muravlenko,63.79,74.52,32.31,92,63,12.73,RU,broken clouds,0.0,0.0,2020-04-19 22:54:33
480,Palestine,31.92,35.2,68.0,77,0,5.82,PS,clear sky,0.0,0.0,2020-04-19 22:54:34
481,Conde,-7.26,-34.91,78.8,88,20,3.36,BR,few clouds,0.0,0.0,2020-04-19 22:54:34
482,Asfi,32.3,-9.24,60.93,76,1,7.31,MA,clear sky,0.0,0.0,2020-04-19 22:54:35
483,Tutoia,-2.76,-42.27,80.08,82,75,6.71,BR,broken clouds,0.0,0.0,2020-04-19 22:54:35
484,Udachnyy,66.42,112.4,19.4,41,4,4.47,RU,clear sky,0.0,0.0,2020-04-19 22:54:35
485,Lompoc,34.64,-120.46,64.0,59,40,17.22,US,scattered clouds,0.0,0.0,2020-04-19 22:54:35
486,Honiara,-9.43,159.95,84.2,74,20,5.03,SB,few clouds,0.0,0.0,2020-04-19 22:54:36
487,Nyurba,63.28,118.33,20.48,93,87,4.81,RU,overcast clouds,0.0,0.0,2020-04-19 22:54:36
488,Araouane,18.9,-3.53,84.16,20,0,14.72,ML,clear sky,0.0,0.0,2020-04-19 22:54:36
489,Broome,42.25,-75.83,55.4,43,40,16.11,US,scattered clouds,0.0,0.0,2020-04-19 22:54:37
490,Acultzingo,18.72,-97.32,87.01,32,66,1.01,MX,light rain,0.62,0.0,2020-04-19 22:54:37
491,Nador,35.17,-2.93,64.4,59,31,17.22,MA,scattered clouds,0.0,0.0,2020-04-19 22:54:37
492,Ilulissat,69.22,-51.1,30.2,54,100,25.28,GL,overcast clouds,0.0,0.0,2020-04-19 22:54:38
493,Killybegs,54.63,-8.45,46.67,73,0,13.4,IE,clear sky,0.0,0.0,2020-04-19 22:54:38
494,Maniwaki,46.38,-75.97,31.19,91,100,8.55,CA,light snow,0.0,1.41,2020-04-19 22:54:38
495,Novikovo,51.15,37.89,38.59,72,56,3.29,RU,broken clouds,0.0,0.0,2020-04-19 22:54:39
496,Srednekolymsk,67.45,153.68,9.52,93,86,12.19,RU,light snow,0.0,0.19,2020-04-19 22:54:39
497,Kibre Mengist,5.88,38.98,60.1,61,100,1.03,ET,light rain,1.07,0.0,2020-04-19 22:54:39
498,Sokolo,14.73,-6.12,91.33,28,61,10.58,ML,broken clouds,0.0,0.0,2020-04-19 22:54:39
499,Lac Du Bonnet,50.25,-96.06,48.0,41,100,11.99,CA,overcast clouds,0.0,0.0,2020-04-19 22:54:40
500,Kuala Terengganu,5.33,103.14,80.6,94,20,3.36,MY,few clouds,0.0,0.0,2020-04-19 22:54:40
501,Kulhudhuffushi,6.62,73.07,86.32,69,36,8.55,MV,scattered clouds,0.0,0.0,2020-04-19 22:54:40
502,Qiongshan,20.01,110.35,77.0,88,20,4.47,CN,few clouds,0.0,0.0,2020-04-19 22:54:40
503,Ternate,0.8,127.4,85.03,68,45,1.61,ID,scattered clouds,0.0,0.0,2020-04-19 22:54:41
504,Gondanglegi,-7.75,112.01,78.71,84,96,0.96,ID,overcast clouds,0.0,0.0,2020-04-19 22:54:41
505,Ekibastuz,51.67,75.37,54.79,56,48,4.05,KZ,scattered clouds,0.0,0.0,2020-04-19 22:54:41
506,Verkhnevilyuysk,63.45,120.32,20.01,93,94,4.99,RU,overcast clouds,0.0,0.0,2020-04-19 22:54:42
507,Lerwick,60.15,-1.15,44.6,87,0,9.17,GB,clear sky,0.0,0.0,2020-04-19 22:54:42
508,Angouleme,45.65,0.15,57.2,93,75,3.36,FR,broken clouds,0.0,0.0,2020-04-19 22:54:43
509,Pocone,-16.26,-56.62,75.38,82,25,1.54,BR,light rain,0.26,0.0,2020-04-19 22:53:06
510,Port Keats,-14.25,129.55,85.42,65,67,3.96,AU,broken clouds,0.0,0.0,2020-04-19 22:54:44
511,Arawa,-6.21,155.54,86.18,63,88,2.17,PG,overcast clouds,0.0,0.0,2020-04-19 22:54:45
512,Nishihara,26.18,127.76,66.2,93,90,14.99,JP,moderate rain,0.0,0.0,2020-04-19 22:54:45
513,Chimbote,-9.09,-78.58,72.19,76,1,8.63,PE,clear sky,0.0,0.0,2020-04-19 22:54:46
514,Katangli,51.71,143.23,37.29,79,100,3.4,RU,overcast clouds,0.0,0.0,2020-04-19 22:54:46
515,Qaqortoq,60.72,-46.03,32.0,91,0,1.12,GL,clear sky,0.0,0.0,2020-04-19 22:54:46
516,Progreso,21.28,-89.67,104.0,23,5,17.22,MX,clear sky,0.0,0.0,2020-04-19 22:54:46
517,Lethem,3.38,-59.8,87.51,50,73,7.85,GY,light rain,0.94,0.0,2020-04-19 22:54:47
518,Manggar,-2.88,108.27,82.51,76,44,2.62,ID,scattered clouds,0.0,0.0,2020-04-19 22:54:47
519,Jurado,7.11,-77.76,78.62,82,71,2.39,CO,light rain,0.5,0.0,2020-04-19 22:54:47
520,Natchez,31.56,-91.4,68.0,94,90,17.22,US,moderate rain,0.0,0.0,2020-04-19 22:54:48
521,Vadum,57.12,9.86,39.0,84,0,0.74,DK,clear sky,0.0,0.0,2020-04-19 22:54:48
522,Tura,25.52,90.22,68.61,85,26,1.66,IN,light rain,0.29,0.0,2020-04-19 22:54:48
523,Petropavlovsk-Kamchatskiy,53.05,158.65,33.8,26,21,15.66,RU,few clouds,0.0,0.0,2020-04-19 22:54:49
524,Kapuskasing,49.42,-82.43,24.8,35,40,14.99,CA,scattered clouds,0.0,0.0,2020-04-19 22:54:49
525,Hanmer Springs,-42.52,172.82,55.96,41,87,8.05,NZ,overcast clouds,0.0,0.0,2020-04-19 22:54:50
526,Sabha,27.04,14.43,80.24,14,8,19.75,LY,clear sky,0.0,0.0,2020-04-19 22:54:50
527,Port Blair,11.67,92.75,83.32,77,11,6.38,IN,few clouds,0.0,0.0,2020-04-19 22:52:13
528,Mayumba,-3.43,10.66,79.09,85,90,12.33,GA,moderate rain,4.28,0.0,2020-04-19 22:54:51
529,Kamenka,51.32,42.77,36.61,88,59,4.21,RU,broken clouds,0.0,0.0,2020-04-19 22:54:51
530,Monte Alegre,-2.01,-54.07,72.3,96,100,1.97,BR,overcast clouds,0.0,0.0,2020-04-19 22:54:52
531,Qena,26.16,32.72,73.4,43,0,3.87,EG,clear sky,0.0,0.0,2020-04-19 22:54:52
532,Xacmaz,41.46,48.81,52.72,69,43,4.45,AZ,scattered clouds,0.0,0.0,2020-04-19 22:54:52
533,Mount Gambier,-37.83,140.77,57.2,76,90,10.29,AU,overcast clouds,0.0,0.0,2020-04-19 22:54:52
534,Axim,4.87,-2.24,81.61,81,99,6.91,GH,light rain,1.29,0.0,2020-04-19 22:54:53
535,Calbuco,-41.77,-73.13,53.6,93,75,4.7,CL,shower rain,0.0,0.0,2020-04-19 22:54:53
536,Tlaxco,19.62,-98.12,78.8,31,40,19.46,MX,scattered clouds,0.0,0.0,2020-04-19 22:54:53
537,Veraval,20.9,70.37,78.64,61,1,10.45,IN,clear sky,0.0,0.0,2020-04-19 22:54:53
538,Fonte Boa,-2.5,-66.27,74.93,92,100,0.47,BR,light rain,1.46,0.0,2020-04-19 22:54:54
539,Khandyga,62.67,135.6,12.83,86,0,4.03,RU,clear sky,0.0,0.0,2020-04-19 22:54:54
540,Westport,41.14,-73.36,55.99,62,1,21.92,US,clear sky,0.0,0.0,2020-04-19 22:52:41
541,Parksville,49.32,-124.32,53.38,76,70,6.33,CA,broken clouds,0.0,0.0,2020-04-19 22:54:02
542,Las Vegas,36.17,-115.14,80.6,18,20,10.29,US,few clouds,0.0,0.0,2020-04-19 22:51:51
543,Hasaki,35.73,140.83,48.2,93,75,10.29,JP,light rain,0.0,0.0,2020-04-19 22:50:51
544,Faya,18.39,42.45,66.2,72,89,3.51,SA,overcast clouds,0.0,0.0,2020-04-19 22:54:56
545,Balclutha,-46.23,169.75,57.0,44,51,8.01,NZ,broken clouds,0.0,0.0,2020-04-19 22:54:56
546,Kushima,31.46,131.23,62.6,77,75,10.29,JP,broken clouds,0.0,0.0,2020-04-19 22:54:56
547,Changji,44.02,87.32,60.8,41,25,4.47,CN,scattered clouds,0.0,0.0,2020-04-19 22:54:57
548,Flinders,-34.58,150.86,61.0,68,100,5.01,AU,overcast clouds,0.0,0.0,2020-04-19 22:54:57
549,Bam,29.11,58.36,67.95,38,100,1.77,IR,overcast clouds,0.0,0.0,2020-04-19 22:54:57
550,Bathsheba,13.22,-59.52,80.6,74,40,18.34,BB,shower rain,0.0,0.0,2020-04-19 22:54:57
551,Goshogawara,40.8,140.44,51.01,57,75,3.36,JP,broken clouds,0.0,0.0,2020-04-19 22:54:58
552,Villarrica,-25.75,-56.43,68.58,59,0,4.32,PY,clear sky,0.0,0.0,2020-04-19 22:54:58
553,Praia Da Vitoria,38.73,-27.07,57.2,62,20,18.77,PT,few clouds,0.0,0.0,2020-04-19 22:54:58
554,Turukhansk,65.82,87.98,37.99,73,100,18.16,RU,overcast clouds,0.0,0.0,2020-04-19 22:54:59
555,Muzhi,65.37,64.67,33.67,95,99,5.48,RU,overcast clouds,0.0,0.0,2020-04-19 22:54:59
556,Danielskuil,-28.19,23.54,64.96,27,30,8.01,ZA,scattered clouds,0.0,0.0,2020-04-19 22:55:00
557,Zhangye,38.93,100.45,47.61,25,93,1.95,CN,overcast clouds,0.0,0.0,2020-04-19 22:55:00
558,Naze,28.37,129.48,66.2,77,75,10.29,JP,broken clouds,0.0,0.0,2020-04-19 22:55:00
559,Tuktoyaktuk,69.45,-133.04,10.4,78,90,11.41,CA,light snow,0.0,0.0,2020-04-19 22:55:01
560,Kaka,37.35,59.61,63.61,34,0,4.18,TM,clear sky,0.0,0.0,2020-04-19 22:55:01
561,Inta,66.03,60.17,34.21,95,100,6.89,RU,overcast clouds,0.0,0.0,2020-04-19 22:55:02
562,Hukuntsi,-24.0,21.75,70.97,27,59,8.57,BW,broken clouds,0.0,0.0,2020-04-19 22:55:02
563,Soe,-9.86,124.28,73.02,65,38,2.68,ID,scattered clouds,0.0,0.0,2020-04-19 22:55:02
564,Vermillion,42.78,-96.93,54.0,40,75,4.7,US,broken clouds,0.0,0.0,2020-04-19 22:55:02
565,Ulaangom,49.98,92.07,38.26,47,0,2.44,MN,clear sky,0.0,0.0,2020-04-19 22:55:03
566,Manicore,-5.81,-61.3,75.38,95,84,2.68,BR,moderate rain,6.03,0.0,2020-04-19 22:55:03
567,Atikokan,48.76,-91.62,34.23,67,86,7.36,CA,overcast clouds,0.0,0.0,2020-04-19 22:55:03
568,Baruun-Urt,46.68,113.28,22.84,72,83,15.28,MN,light snow,0.0,0.22,2020-04-19 22:55:03
569,Krasnaya Gora,53.0,31.6,32.0,87,15,8.95,RU,few clouds,0.0,0.0,2020-04-19 22:55:04
570,Samba,32.57,75.12,67.1,41,69,5.19,IN,broken clouds,0.0,0.0,2020-04-19 22:55:04
571,Zirandaro,18.45,-100.98,103.59,19,7,8.79,MX,clear sky,0.0,0.0,2020-04-19 22:55:04
572,Lebedyan,53.02,39.17,33.8,71,100,4.47,RU,overcast clouds,0.0,0.0,2020-04-19 22:55:05
573,Jurmala,56.97,23.77,37.4,87,5,4.7,LV,clear sky,0.0,0.0,2020-04-19 22:55:05
574,Buala,-8.14,159.59,84.72,71,63,5.61,SB,light rain,0.15,0.0,2020-04-19 22:55:05
575,Pimentel,-6.84,-79.93,72.12,78,4,12.41,PE,clear sky,0.0,0.0,2020-04-19 22:55:06
576,Goderich,43.75,-81.72,44.01,67,27,12.86,CA,scattered clouds,0.0,0.0,2020-04-19 22:55:06
577,Constitucion,-35.33,-72.42,57.25,68,74,12.71,CL,broken clouds,0.0,0.0,2020-04-19 22:54:55
578,Khonsa,27.02,95.57,61.29,68,57,1.32,IN,light rain,0.16,0.0,2020-04-19 22:55:07
579,Kui Buri,12.08,99.85,79.9,77,21,4.23,TH,few clouds,0.0,0.0,2020-04-19 22:51:30
580,Necochea,-38.55,-58.74,60.01,92,61,1.01,AR,broken clouds,0.0,0.0,2020-04-19 22:55:07
581,Carnoustie,56.5,-2.71,44.6,93,20,10.29,GB,few clouds,0.0,0.0,2020-04-19 22:55:08
582,Belmonte,-15.86,-38.88,75.2,78,75,5.82,BR,broken clouds,0.0,0.0,2020-04-19 22:52:05
583,Sambava,-14.27,50.17,73.58,88,50,7.9,MG,light rain,0.64,0.0,2020-04-19 22:55:08
584,Nelson Bay,-32.72,152.15,63.0,71,86,16.11,AU,overcast clouds,0.0,0.0,2020-04-19 22:55:08
585,Karasburg,-28.02,18.75,68.54,23,11,3.09,NA,few clouds,0.0,0.0,2020-04-19 22:55:09
586,Rairangpur,22.27,86.18,78.17,46,64,3.53,IN,broken clouds,0.0,0.0,2020-04-19 22:55:09
587,Turayf,31.67,38.66,64.4,45,43,6.93,SA,scattered clouds,0.0,0.0,2020-04-19 22:55:09
588,Boguchany,58.38,97.45,30.52,86,0,5.88,RU,clear sky,0.0,0.0,2020-04-19 22:55:09
589,Bridgwater,51.13,-3.0,52.0,68,81,1.99,GB,broken clouds,0.0,0.0,2020-04-19 22:55:09
