,City,Country,Date,Lat,Lng,Max Temp,Humidity,Cloudiness,Wind Speed,Current Description,Rain inches (last 3 hrs),Snow inches (last 3 hrs)
0,Aguimes,ES,2020-04-20 01:51:22,27.91,-15.45,64.4,63,40,12.75,scattered clouds,0.0,0.0
1,Itarema,BR,2020-04-20 01:51:22,-2.92,-39.92,77.07,87,21,1.95,few clouds,0.0,0.0
2,Kodiak,US,2020-04-20 01:51:22,57.79,-152.41,46.4,75,90,12.75,overcast clouds,0.0,0.0
3,Clyde River,CA,2020-04-20 01:51:23,70.47,-68.59,-4.0,76,1,4.7,clear sky,0.0,0.0
4,Mombasa,KE,2020-04-20 01:51:23,-4.05,39.66,77.2,83,97,11.12,light rain,0.94,0.0
5,Ushuaia,AR,2020-04-20 01:51:23,-54.8,-68.3,41.0,80,40,27.51,scattered clouds,0.0,0.0
6,Hobart,AU,2020-04-20 01:51:23,-42.88,147.33,63.0,63,75,12.75,broken clouds,0.0,0.0
7,Arraial Do Cabo,BR,2020-04-20 01:51:24,-22.97,-42.03,72.48,73,75,2.57,broken clouds,0.0,0.0
8,Rikitea,PF,2020-04-20 01:51:24,-23.12,-134.97,76.84,71,93,6.76,overcast clouds,0.0,0.0
9,Sioux Lookout,CA,2020-04-20 01:51:24,50.1,-91.92,35.6,50,90,13.87,overcast clouds,0.0,0.0
10,Husavik,IS,2020-04-20 01:51:24,66.04,-17.34,44.6,70,20,26.4,few clouds,0.0,0.0
11,Bluff,NZ,2020-04-20 01:51:25,-46.6,168.33,57.99,60,70,8.99,light rain,0.23,0.0
12,Vejprnice,CZ,2020-04-20 01:51:25,49.73,13.28,41.0,60,0,6.93,clear sky,0.0,0.0
13,Macroom,IE,2020-04-20 01:51:25,51.9,-8.95,46.99,87,54,8.05,broken clouds,0.0,0.0
14,Hilo,US,2020-04-20 01:51:25,19.73,-155.09,80.6,51,1,12.75,clear sky,0.0,0.0
15,Pochutla,MX,2020-04-20 01:51:26,15.74,-96.47,82.0,81,3,3.38,clear sky,0.0,0.0
16,Shostka,UA,2020-04-20 01:51:26,51.86,33.47,31.5,92,0,7.31,clear sky,0.0,0.0
17,Bokoro,TD,2020-04-20 01:51:26,12.38,17.06,78.75,16,22,7.16,few clouds,0.0,0.0
18,Barrow,US,2020-04-20 01:51:26,71.29,-156.79,12.2,78,90,5.82,light snow,0.0,0.0
19,Roma,US,2020-04-20 01:51:26,43.21,-75.46,45.0,93,90,5.82,light rain,0.0,0.0
20,Tongzi,CN,2020-04-20 01:51:27,28.78,105.09,66.36,66,86,5.5,light rain,0.16,0.0
21,San Patricio,MX,2020-04-20 01:47:10,19.22,-104.7,75.2,78,5,17.22,clear sky,0.0,0.0
22,Norman Wells,CA,2020-04-20 01:51:27,65.28,-126.83,30.2,58,75,3.15,broken clouds,0.0,0.0
23,Tasiilaq,GL,2020-04-20 01:51:27,65.61,-37.64,32.0,90,100,3.36,overcast clouds,0.0,0.0
24,Saint-Philippe,RE,2020-04-20 01:51:28,-21.36,55.77,73.4,78,75,11.41,broken clouds,0.0,0.0
25,Yellowknife,CA,2020-04-20 01:51:28,62.46,-114.35,24.8,58,40,21.92,scattered clouds,0.0,0.0
26,Hithadhoo,MV,2020-04-20 01:51:28,-0.6,73.08,84.88,76,100,11.5,overcast clouds,0.0,0.0
27,Mishan,CN,2020-04-20 01:51:28,45.55,131.88,48.74,53,100,15.7,overcast clouds,0.0,0.0
28,Isla Mujeres,MX,2020-04-20 01:51:29,21.23,-86.73,82.4,78,40,12.75,scattered clouds,0.0,0.0
29,Georgetown,MY,2020-04-20 01:50:05,5.41,100.34,87.8,83,20,2.91,few clouds,0.0,0.0
30,Busselton,AU,2020-04-20 01:47:47,-33.65,115.33,69.01,42,95,22.88,light rain,0.13,0.0
31,Lebu,CL,2020-04-20 01:51:30,-37.62,-73.65,55.58,72,100,9.01,overcast clouds,0.0,0.0
32,Taltal,CL,2020-04-20 01:51:30,-25.4,-70.48,59.65,74,0,1.23,clear sky,0.0,0.0
33,Tiksi,RU,2020-04-20 01:51:31,71.69,128.87,18.86,92,100,6.04,overcast clouds,0.0,0.0
34,Gat,IL,2020-04-20 01:51:31,31.61,34.76,62.01,75,0,1.99,clear sky,0.0,0.0
35,Ugoofaaru,MV,2020-04-20 01:48:37,5.67,73.0,86.09,71,45,8.75,scattered clouds,0.0,0.0
36,Bangkalan,ID,2020-04-20 01:51:31,-7.05,112.74,89.1,64,70,2.33,light rain,0.11,0.0
37,Ocampo,MX,2020-04-20 01:51:31,21.65,-101.5,68.11,16,0,7.7,clear sky,0.0,0.0
38,Avarua,CK,2020-04-20 01:51:32,-21.21,-159.78,82.4,69,3,9.17,clear sky,0.0,0.0
39,New Norfolk,AU,2020-04-20 01:51:32,-42.78,147.06,63.0,86,98,9.69,light rain,1.35,0.0
40,Victor Harbor,AU,2020-04-20 01:51:32,-35.57,138.62,66.99,57,43,8.99,scattered clouds,0.0,0.0
41,Igrim,RU,2020-04-20 01:51:32,63.19,64.42,36.1,87,68,8.63,broken clouds,0.0,0.0
42,Thompson,CA,2020-04-20 01:51:33,55.74,-97.86,21.2,85,90,9.17,light snow,0.0,0.0
43,Tolaga Bay,NZ,2020-04-20 01:51:33,-38.37,178.3,67.86,61,100,4.68,overcast clouds,0.0,0.0
44,Kruisfontein,ZA,2020-04-20 01:51:33,-34.0,24.73,60.62,74,0,5.37,clear sky,0.0,0.0
45,Kurilsk,RU,2020-04-20 01:51:33,45.23,147.88,37.15,77,100,13.96,overcast clouds,0.0,0.0
46,Dingle,PH,2020-04-20 01:47:00,11.0,122.67,89.37,60,98,13.8,light rain,0.31,0.0
47,Aklavik,CA,2020-04-20 01:51:34,68.22,-135.01,23.0,53,90,3.36,overcast clouds,0.0,0.0
48,San Carlos De Bariloche,AR,2020-04-20 01:51:07,-41.15,-71.31,48.2,66,40,18.34,scattered clouds,0.0,0.0
49,Qaanaaq,GL,2020-04-20 01:51:34,77.48,-69.36,9.43,82,39,11.48,scattered clouds,0.0,0.0
50,Davidson,US,2020-04-20 01:51:08,36.15,-86.78,53.6,81,90,6.93,overcast clouds,0.0,0.0
51,Bengkulu,ID,2020-04-20 01:51:35,-3.8,102.27,86.95,62,60,2.71,broken clouds,0.0,0.0
52,Saint-Denis,FR,2020-04-20 01:50:23,48.92,2.33,55.0,87,81,6.93,mist,0.0,0.0
53,Cidreira,BR,2020-04-20 01:51:36,-30.18,-50.21,66.7,86,0,15.21,clear sky,0.0,0.0
54,Atuona,PF,2020-04-20 01:51:36,-9.8,-139.03,82.72,75,45,12.82,scattered clouds,0.0,0.0
55,Cervo,ES,2020-04-20 01:51:36,43.67,-7.41,48.0,1,68,2.73,broken clouds,0.0,0.0
56,Oranjemund,NA,2020-04-20 01:51:36,-28.55,16.43,57.58,92,34,2.1,scattered clouds,0.0,0.0
57,Iqaluit,CA,2020-04-20 01:51:36,63.75,-68.51,-4.0,76,20,4.7,few clouds,0.0,0.0
58,Albany,US,2020-04-20 01:47:59,42.6,-73.97,51.01,61,94,10.0,light rain,1.98,0.0
59,Codrington,AU,2020-04-20 01:51:37,-38.27,141.97,61.39,54,19,21.23,few clouds,0.0,0.0
60,Cherskiy,RU,2020-04-20 01:51:37,68.75,161.3,12.81,94,100,8.32,light snow,0.0,0.13
61,Takhli,TH,2020-04-20 01:51:38,15.26,100.34,90.0,68,27,1.01,scattered clouds,0.0,0.0
62,Erdenet,MN,2020-04-20 01:51:38,49.03,104.08,29.16,43,51,16.46,broken clouds,0.0,0.0
63,Talara,PE,2020-04-20 01:51:38,-4.58,-81.27,74.7,72,99,11.39,overcast clouds,0.0,0.0
64,Yumen,CN,2020-04-20 01:51:38,40.28,97.2,51.31,19,75,16.33,broken clouds,0.0,0.0
65,Lang Son,VN,2020-04-20 01:51:38,21.83,106.73,78.98,69,100,5.77,overcast clouds,0.0,0.0
66,Ostrovnoy,RU,2020-04-20 01:51:39,68.05,39.51,24.48,97,46,6.55,scattered clouds,0.0,0.0
67,Mataura,NZ,2020-04-20 01:51:39,-46.19,168.86,57.99,60,90,8.99,overcast clouds,0.0,0.0
68,Andenes,NO,2020-04-20 01:51:39,69.31,16.12,41.0,93,99,18.34,light rain,0.11,0.0
69,Kaeo,NZ,2020-04-20 01:47:03,-35.1,173.78,62.01,95,100,1.99,moderate rain,6.23,0.0
70,Asau,RO,2020-04-20 01:51:40,46.43,26.4,46.4,70,75,16.11,broken clouds,0.0,0.0
71,Cabra,ES,2020-04-20 01:51:40,37.47,-4.44,55.0,81,48,2.24,scattered clouds,0.0,0.0
72,Hamilton,US,2020-04-20 01:49:06,39.18,-84.53,51.8,81,1,3.83,clear sky,0.0,0.0
73,Comodoro Rivadavia,AR,2020-04-20 01:51:40,-45.87,-67.5,53.6,50,0,20.8,clear sky,0.0,0.0
74,Tynda,RU,2020-04-20 01:51:41,55.17,124.72,23.74,75,96,16.17,overcast clouds,0.0,0.0
75,Pangnirtung,CA,2020-04-20 01:51:41,66.15,-65.71,-0.81,79,18,6.02,few clouds,0.0,0.0
76,Port Alfred,ZA,2020-04-20 01:51:41,-33.59,26.89,69.01,67,0,4.0,clear sky,0.0,0.0
77,San Carlos,VE,2020-04-20 01:51:42,9.66,-68.58,77.61,71,16,1.07,light rain,0.42,0.0
78,Nikolskoye,RU,2020-04-20 01:51:42,59.7,30.79,37.4,94,37,4.47,scattered clouds,0.0,0.0
79,Vaini,TO,2020-04-20 01:51:42,-21.2,-175.2,84.2,74,20,11.41,few clouds,0.0,0.0
80,Lagoa,PT,2020-04-20 01:51:42,39.05,-27.98,56.79,60,0,13.04,clear sky,0.0,0.0
81,Chokurdakh,RU,2020-04-20 01:51:43,70.63,147.92,9.68,95,92,11.48,overcast clouds,0.0,0.0
82,Lorengau,PG,2020-04-20 01:51:43,-2.02,147.27,84.49,74,33,6.35,light rain,0.66,0.0
83,Tamandare,BR,2020-04-20 01:51:43,-8.76,-35.1,79.86,82,43,7.72,light rain,2.33,0.0
84,Itoman,JP,2020-04-20 01:51:43,26.12,127.67,66.2,93,75,10.29,light intensity shower rain,0.0,0.0
85,Bambous Virieux,MU,2020-04-20 01:51:44,-20.34,57.76,77.0,83,75,12.75,broken clouds,0.0,0.0
86,Oudtshoorn,ZA,2020-04-20 01:51:44,-33.59,22.2,55.4,87,0,2.24,clear sky,0.0,0.0
87,Dikson,RU,2020-04-20 01:51:44,73.51,80.55,33.6,94,86,17.05,overcast clouds,0.0,0.0
88,Sept-Iles,CA,2020-04-20 01:51:45,50.2,-66.38,32.0,98,90,10.29,light snow,0.0,0.0
89,Punta Arenas,CL,2020-04-20 01:51:45,-53.15,-70.92,41.0,65,40,14.99,scattered clouds,0.0,0.0
90,Tuatapere,NZ,2020-04-20 01:47:18,-46.13,167.68,57.99,60,16,7.0,few clouds,0.0,0.0
91,Coihaique,CL,2020-04-20 01:49:18,-45.58,-72.07,41.0,86,42,2.24,scattered clouds,0.0,0.0
92,Victoria,HK,2020-04-20 01:51:45,22.29,114.16,82.0,82,22,4.0,few clouds,0.0,0.0
93,East London,ZA,2020-04-20 01:51:46,-33.02,27.91,76.21,54,0,10.85,clear sky,0.0,0.0
94,Touros,BR,2020-04-20 01:51:46,-5.2,-35.46,77.0,94,40,4.7,scattered clouds,0.0,0.0
95,Carahue,CL,2020-04-20 01:51:46,-38.7,-73.17,53.6,87,88,1.77,overcast clouds,0.0,0.0
96,Springfield,US,2020-04-20 01:48:58,37.22,-93.3,61.0,67,75,7.02,broken clouds,0.0,0.0
97,Mayo,US,2020-04-20 01:50:36,38.89,-76.51,55.4,76,1,6.93,clear sky,0.0,0.0
98,Hermanus,ZA,2020-04-20 01:51:47,-34.42,19.23,60.01,95,9,12.01,clear sky,0.0,0.0
99,Ribeira Grande,PT,2020-04-20 01:51:47,38.52,-28.7,56.26,58,2,7.27,clear sky,0.0,0.0
100,Ponta Do Sol,PT,2020-04-20 01:48:21,32.67,-17.1,60.01,70,9,14.0,clear sky,0.0,0.0
101,Cookeville,US,2020-04-20 01:51:47,36.16,-85.5,54.0,81,90,4.7,moderate rain,0.0,0.0
102,Bubaque,GW,2020-04-20 01:51:48,11.28,-15.83,77.59,71,48,12.1,scattered clouds,0.0,0.0
103,Longyearbyen,SJ,2020-04-20 01:51:48,78.22,15.64,30.2,86,90,33.33,heavy snow,0.0,0.0
104,Port Elizabeth,ZA,2020-04-20 01:51:48,-33.92,25.57,75.2,38,0,16.11,clear sky,0.0,0.0
105,Jamestown,US,2020-04-20 01:47:10,42.1,-79.24,42.01,93,90,12.75,overcast clouds,0.0,0.0
106,Torbay,CA,2020-04-20 01:51:49,47.67,-52.73,36.0,100,90,26.4,moderate rain,0.0,0.0
107,Kapaa,US,2020-04-20 01:51:49,22.08,-159.32,80.6,69,1,10.29,clear sky,0.0,0.0
108,Zhigansk,RU,2020-04-20 01:51:49,66.77,123.37,23.38,92,98,7.74,overcast clouds,0.0,0.0
109,Mahibadhoo,MV,2020-04-20 01:51:50,3.78,72.97,85.19,74,86,8.59,light rain,0.49,0.0
110,Bereda,ES,2020-04-20 01:51:50,43.27,-7.54,50.0,100,92,5.01,overcast clouds,0.0,0.0
111,Tazovskiy,RU,2020-04-20 01:51:50,67.47,78.7,33.84,98,92,9.82,overcast clouds,0.0,0.0
112,Cape Town,ZA,2020-04-20 01:51:50,-33.93,18.42,62.01,82,75,18.34,broken clouds,0.0,0.0
113,Toktogul,KG,2020-04-20 01:51:51,41.87,72.94,59.7,22,0,1.1,clear sky,0.0,0.0
114,Jumla,NP,2020-04-20 01:51:51,29.27,82.18,55.0,23,60,1.57,light rain,0.17,0.0
115,Merauke,ID,2020-04-20 01:51:51,-8.47,140.33,89.24,63,22,7.27,light rain,0.16,0.0
116,Namatanai,PG,2020-04-20 01:51:51,-3.67,152.43,84.02,73,96,5.97,overcast clouds,0.0,0.0
117,Tessalit,ML,2020-04-20 01:51:52,20.2,1.01,78.04,33,0,8.21,clear sky,0.0,0.0
118,Guerrero Negro,MX,2020-04-20 01:51:52,27.98,-114.06,60.48,78,99,19.82,overcast clouds,0.0,0.0
119,Meulaboh,ID,2020-04-20 01:51:52,4.14,96.13,86.14,68,3,2.1,clear sky,0.0,0.0
120,Surt,LY,2020-04-20 01:51:53,31.21,16.59,70.03,33,100,19.44,overcast clouds,0.0,0.0
121,Salalah,OM,2020-04-20 01:51:53,17.02,54.09,80.6,74,20,4.7,few clouds,0.0,0.0
122,Ingham,US,2020-04-20 01:51:53,42.6,-84.38,43.0,48,1,4.7,clear sky,0.0,0.0
123,Mehamn,NO,2020-04-20 01:51:53,71.04,27.85,37.33,79,86,23.87,overcast clouds,0.0,0.0
124,Kemin,KG,2020-04-20 01:51:54,42.78,75.69,58.37,23,1,3.85,clear sky,0.0,0.0
125,Esperance,AU,2020-04-20 01:51:54,-33.87,121.9,60.8,67,0,12.75,clear sky,0.0,0.0
126,Bethel,US,2020-04-20 01:51:54,41.37,-73.41,55.4,37,75,12.75,broken clouds,0.0,0.0
127,Hovd,MN,2020-04-20 01:51:54,48.01,91.64,45.28,26,0,3.13,clear sky,0.0,0.0
128,Sitka,US,2020-04-20 01:50:09,57.05,-135.33,51.8,81,90,6.93,overcast clouds,0.0,0.0
129,Leningradskiy,RU,2020-04-20 01:51:55,69.38,178.42,14.41,93,95,10.16,overcast clouds,0.0,0.0
130,Butaritari,KI,2020-04-20 01:51:55,3.07,172.79,83.77,70,26,7.83,light rain,1.01,0.0
131,Polignano A Mare,IT,2020-04-20 01:51:55,41.0,17.22,63.0,61,100,4.99,overcast clouds,0.0,0.0
132,Chicama,PE,2020-04-20 01:51:56,-7.84,-79.15,73.51,70,7,6.55,clear sky,0.0,0.0
133,Brigantine,US,2020-04-20 01:51:56,39.41,-74.36,53.6,66,1,8.05,clear sky,0.0,0.0
134,Souillac,MU,2020-04-20 01:51:56,-20.52,57.52,77.0,83,75,12.75,broken clouds,0.0,0.0
135,Malpe,IN,2020-04-20 01:51:56,13.35,74.72,82.4,83,20,0.47,few clouds,0.0,0.0
136,Flin Flon,CA,2020-04-20 01:51:57,54.77,-101.86,25.75,94,68,8.7,light snow,0.0,0.16
137,Faanui,PF,2020-04-20 01:51:57,-16.48,-151.75,82.24,77,81,19.19,light rain,1.2,0.0
138,Totma,RU,2020-04-20 01:51:57,59.97,42.76,29.91,96,0,1.63,clear sky,0.0,0.0
139,Igarka,RU,2020-04-20 01:51:58,67.47,86.58,38.41,73,100,26.51,overcast clouds,0.0,0.0
140,Azogues,EC,2020-04-20 01:51:58,-2.73,-78.83,55.4,87,58,3.36,broken clouds,0.0,0.0
141,Castro,BR,2020-04-20 01:48:44,-24.79,-50.01,56.52,70,49,5.79,scattered clouds,0.0,0.0
142,Walvis Bay,NA,2020-04-20 01:51:58,-22.96,14.51,59.0,87,91,9.17,overcast clouds,0.0,0.0
143,Yerbogachen,RU,2020-04-20 01:51:59,61.28,108.01,30.92,79,0,3.96,clear sky,0.0,0.0
144,Komsomolskiy,UZ,2020-04-20 01:51:59,40.43,71.72,55.4,62,4,9.17,clear sky,0.0,0.0
145,Kupang,ID,2020-04-20 01:51:59,-10.17,123.58,87.8,62,20,9.17,few clouds,0.0,0.0
146,Bundaberg,AU,2020-04-20 01:51:59,-24.85,152.35,82.99,57,0,5.82,clear sky,0.0,0.0
147,Koumac,NC,2020-04-20 01:52:00,-20.57,164.28,80.96,76,100,8.88,light rain,2.67,0.0
148,Asyut,EG,2020-04-20 01:48:14,27.18,31.18,60.8,55,0,6.93,clear sky,0.0,0.0
149,Margate,GB,2020-04-20 01:52:01,51.38,1.39,52.0,69,0,8.01,clear sky,0.0,0.0
150,Khatanga,RU,2020-04-20 01:52:02,71.97,102.5,31.03,95,61,5.66,broken clouds,0.0,0.0
151,Shenjiamen,CN,2020-04-20 01:52:02,29.96,122.3,58.41,74,10,5.14,clear sky,0.0,0.0
152,Baykit,RU,2020-04-20 01:52:02,61.67,96.37,35.87,75,6,4.72,clear sky,0.0,0.0
153,Igbo Ora,NG,2020-04-20 01:52:02,7.43,3.28,77.38,82,100,3.76,overcast clouds,0.0,0.0
154,Saskylakh,RU,2020-04-20 01:52:03,71.92,114.08,22.86,95,17,2.73,few clouds,0.0,0.0
155,Bristol,US,2020-04-20 01:49:01,41.83,-71.17,51.01,61,1,9.17,clear sky,0.0,0.0
156,Bosaso,SO,2020-04-20 01:48:08,11.28,49.18,82.89,68,81,3.42,broken clouds,0.0,0.0
157,Severo-Kurilsk,RU,2020-04-20 01:52:03,50.68,156.12,31.71,92,52,9.17,broken clouds,0.0,0.0
158,Lafiagi,NG,2020-04-20 01:52:04,8.87,5.42,80.19,73,100,4.27,overcast clouds,0.0,0.0
159,Bitung,ID,2020-04-20 01:52:04,1.45,125.18,89.6,62,20,3.36,few clouds,0.0,0.0
160,Dalby,AU,2020-04-20 01:52:04,-27.18,151.27,71.6,30,14,10.29,few clouds,0.0,0.0
161,Bay Roberts,CA,2020-04-20 01:51:31,47.6,-53.26,36.0,1,100,7.0,light rain,0.0,0.0
162,Dangriga,BZ,2020-04-20 01:52:05,16.97,-88.23,82.0,81,9,7.0,clear sky,0.0,0.0
163,San Quintin,MX,2020-04-20 01:52:05,30.48,-115.95,59.58,74,79,18.79,broken clouds,0.0,0.0
164,Chuy,UY,2020-04-20 01:52:05,-33.7,-53.46,64.47,85,0,9.71,clear sky,0.0,0.0
165,Plainview,US,2020-04-20 01:52:05,40.78,-73.47,55.0,62,90,13.87,overcast clouds,0.0,0.0
166,Cuamba,MZ,2020-04-20 01:52:06,-14.8,36.54,64.04,78,69,4.76,broken clouds,0.0,0.0
167,Nakhon Phanom,TH,2020-04-20 01:52:06,17.41,104.78,93.0,70,2,4.7,mist,0.0,0.0
168,Panaba,MX,2020-04-20 01:49:10,21.28,-88.27,78.44,73,0,12.24,clear sky,0.0,0.0
169,Mangrol,IN,2020-04-20 01:52:06,21.12,70.12,82.8,61,0,9.44,clear sky,0.0,0.0
170,Machachi,EC,2020-04-20 01:52:07,-0.5,-78.57,57.2,87,20,6.93,few clouds,0.0,0.0
171,Bredasdorp,ZA,2020-04-20 01:52:07,-34.53,20.04,52.0,93,0,8.05,clear sky,0.0,0.0
172,Tilichiki,RU,2020-04-20 01:52:07,60.47,166.1,17.91,90,100,16.71,overcast clouds,0.0,0.0
173,Erzurum,TR,2020-04-20 01:52:07,40.0,41.5,33.8,41,75,1.12,broken clouds,0.0,0.0
174,Pundaguitan,PH,2020-04-20 01:52:08,6.37,126.17,83.52,76,55,9.57,broken clouds,0.0,0.0
175,Rudbar,AF,2020-04-20 01:52:08,30.15,62.6,73.56,33,49,2.75,scattered clouds,0.0,0.0
176,Caceres,ES,2020-04-20 01:52:08,39.52,-6.37,48.99,88,98,1.01,overcast clouds,0.0,0.0
177,Hammerfest,NO,2020-04-20 01:52:08,70.66,23.68,39.2,93,75,43.62,broken clouds,0.0,0.0
178,Nanortalik,GL,2020-04-20 01:52:09,60.14,-45.24,27.81,86,17,6.93,few clouds,0.0,0.0
179,Broken Hill,AU,2020-04-20 01:52:09,-31.95,141.43,71.6,28,100,13.87,overcast clouds,0.0,0.0
180,Vanimo,PG,2020-04-20 01:52:09,-2.67,141.3,81.81,82,100,9.69,moderate rain,6.63,0.0
181,Alofi,NU,2020-04-20 01:52:09,-19.06,-169.92,84.2,74,2,14.99,light rain,0.35,0.0
182,Le Port,RE,2020-04-20 01:52:09,-20.94,55.29,75.2,78,16,14.99,few clouds,0.0,0.0
183,Umm Kaddadah,SD,2020-04-20 01:52:10,13.6,26.69,72.55,16,87,12.71,overcast clouds,0.0,0.0
184,Starychi,UA,2020-04-20 01:52:10,49.98,23.56,32.0,84,1,4.47,clear sky,0.0,0.0
185,Klaksvik,FO,2020-04-20 01:52:10,62.23,-6.59,42.8,93,1,18.34,clear sky,0.0,0.0
186,Hay River,CA,2020-04-20 01:52:11,60.82,-115.8,35.6,69,75,12.75,broken clouds,0.0,0.0
187,Usinsk,RU,2020-04-20 01:52:11,65.99,57.53,33.53,96,100,9.73,overcast clouds,0.0,0.0
188,Omsukchan,RU,2020-04-20 01:52:11,62.53,155.8,7.16,84,100,7.45,light snow,0.0,0.28
189,Kudinovo,RU,2020-04-20 01:52:12,55.0,36.25,33.8,94,0,4.47,clear sky,0.0,0.0
190,Olafsvik,IS,2020-04-20 01:52:12,64.89,-23.71,44.02,92,99,18.61,light rain,0.66,0.0
191,Provideniya,RU,2020-04-20 01:52:12,64.38,-173.3,22.59,95,100,13.62,light snow,0.0,0.36
192,Hellvik,NO,2020-04-20 01:52:12,59.92,5.78,41.0,74,0,2.66,clear sky,0.0,0.0
193,Katsuura,JP,2020-04-20 01:52:13,35.13,140.3,50.0,93,75,6.93,light intensity shower rain,0.0,0.0
194,Puerto Baquerizo Moreno,EC,2020-04-20 01:52:13,-0.9,-89.6,78.19,81,49,12.06,scattered clouds,0.0,0.0
195,Kirkwall,GB,2020-04-20 01:52:13,58.98,-2.96,43.0,87,0,13.87,clear sky,0.0,0.0
196,Tchaourou,BJ,2020-04-20 01:52:13,8.89,2.6,76.21,73,98,7.18,overcast clouds,0.0,0.0
197,Okhotsk,RU,2020-04-20 01:52:14,59.38,143.3,20.82,82,13,9.82,few clouds,0.0,0.0
198,Port Antonio,JM,2020-04-20 01:52:14,18.18,-76.46,82.4,74,20,11.41,few clouds,0.0,0.0
199,Havre-Saint-Pierre,CA,2020-04-20 01:52:14,50.23,-63.6,26.6,79,20,6.93,few clouds,0.0,0.0
200,Katherine,AU,2020-04-20 01:52:14,-14.47,132.27,93.2,44,88,5.82,overcast clouds,0.0,0.0
201,Jampur,PK,2020-04-20 01:52:14,29.64,70.6,82.51,30,76,16.17,broken clouds,0.0,0.0
202,Kristiinankaupunki,FI,2020-04-20 01:52:15,62.27,21.38,37.94,92,56,6.29,broken clouds,0.0,0.0
203,Quatre Cocos,MU,2020-04-20 01:52:15,-20.21,57.76,77.0,83,75,12.75,broken clouds,0.0,0.0
204,Airai,TL,2020-04-20 01:52:15,-8.93,125.41,72.95,43,32,3.47,scattered clouds,0.0,0.0
205,Gizo,SB,2020-04-20 01:49:16,-8.1,156.84,84.02,72,83,2.73,light rain,0.71,0.0
206,Sakakah,SA,2020-04-20 01:52:16,29.97,40.21,66.2,42,4,8.05,clear sky,0.0,0.0
207,Avera,US,2020-04-20 01:52:16,33.19,-82.53,57.2,95,90,5.82,thunderstorm with rain,0.0,0.0
208,Saint George,US,2020-04-20 01:52:16,37.1,-113.58,73.4,25,40,11.41,scattered clouds,0.0,0.0
209,Carrollton,US,2020-04-20 01:49:30,32.95,-96.89,73.99,56,20,14.99,few clouds,0.0,0.0
210,Mana,GF,2020-04-20 01:52:17,5.66,-53.78,77.13,90,100,10.45,moderate rain,4.53,0.0
211,Jambi,ID,2020-04-20 01:51:25,-1.6,103.62,90.46,54,4,2.53,clear sky,0.0,0.0
212,Portland,US,2020-04-20 01:52:09,45.52,-122.68,63.0,45,20,8.05,few clouds,0.0,0.0
213,Vestmannaeyjar,IS,2020-04-20 01:52:17,63.44,-20.27,46.22,94,100,27.13,light rain,0.17,0.0
214,Vila Franca Do Campo,PT,2020-04-20 01:52:18,37.72,-25.43,55.4,66,20,10.29,few clouds,0.0,0.0
215,Paamiut,GL,2020-04-20 01:52:18,61.99,-49.67,22.57,84,9,12.8,clear sky,0.0,0.0
216,Fairbanks,US,2020-04-20 01:52:18,64.84,-147.72,48.0,81,90,3.36,light rain,0.0,0.0
217,Carnarvon,AU,2020-04-20 01:52:18,-24.87,113.63,75.2,69,53,18.34,broken clouds,0.0,0.0
218,Pisco,PE,2020-04-20 01:52:18,-13.7,-76.22,69.8,77,0,11.41,clear sky,0.0,0.0
219,Skuodas,LT,2020-04-20 01:52:19,56.27,21.53,28.4,100,0,3.78,clear sky,0.0,0.0
220,Haukipudas,FI,2020-04-20 01:52:19,65.18,25.35,35.6,93,100,4.7,overcast clouds,0.0,0.0
221,Hurfeish,IL,2020-04-20 01:52:19,33.02,35.35,61.0,49,40,8.21,scattered clouds,0.0,0.0
222,Correntina,BR,2020-04-20 01:52:20,-13.34,-44.64,68.63,78,57,4.72,broken clouds,0.0,0.0
223,Kavieng,PG,2020-04-20 01:52:20,-2.57,150.8,84.33,73,30,5.17,light rain,0.43,0.0
224,Linqiong,CN,2020-04-20 01:51:04,30.42,103.46,66.0,88,100,2.24,overcast clouds,0.0,0.0
225,West Bay,KY,2020-04-20 01:52:21,19.37,-81.42,82.4,83,20,3.36,few clouds,0.0,0.0
226,Raudeberg,NO,2020-04-20 01:52:21,61.99,5.14,39.99,80,0,4.7,clear sky,0.0,0.0
227,Saldanha,ZA,2020-04-20 01:52:21,-33.01,17.94,61.95,80,92,16.17,overcast clouds,0.0,0.0
228,Sechura,PE,2020-04-20 01:52:22,-5.56,-80.82,73.4,74,97,13.13,overcast clouds,0.0,0.0
229,Fort Nelson,CA,2020-04-20 01:52:22,58.81,-122.7,62.6,76,75,8.05,broken clouds,0.0,0.0
230,Cabedelo,BR,2020-04-20 01:48:21,-6.98,-34.83,77.0,94,31,2.24,moderate rain,3.21,0.0
231,Niedernhausen,DE,2020-04-20 01:52:22,50.15,8.32,54.0,39,1,10.29,clear sky,0.0,0.0
232,Grindavik,IS,2020-04-20 01:52:23,63.84,-22.43,46.4,100,90,27.51,light intensity drizzle rain,0.0,0.0
233,Ulaanbaatar,MN,2020-04-20 01:49:53,47.91,106.88,23.0,49,40,17.9,scattered clouds,0.0,0.0
234,Mahebourg,MU,2020-04-20 01:52:23,-20.41,57.7,77.0,83,75,12.75,broken clouds,0.0,0.0
235,Zarya,RU,2020-04-20 01:52:23,55.76,38.1,35.6,89,40,4.47,scattered clouds,0.0,0.0
236,Bac Lieu,VN,2020-04-20 01:52:24,9.29,105.72,88.7,53,0,9.17,clear sky,0.0,0.0
237,Geraldton,AU,2020-04-20 01:52:24,-28.77,114.6,71.01,56,0,11.41,clear sky,0.0,0.0
238,Ancud,CL,2020-04-20 01:52:24,-41.87,-73.82,44.6,93,20,5.79,few clouds,0.0,0.0
239,Champerico,GT,2020-04-20 01:52:24,14.3,-91.92,83.5,66,80,0.34,broken clouds,0.0,0.0
240,Vologda,RU,2020-04-20 01:52:24,59.22,39.89,32.34,91,3,3.15,clear sky,0.0,0.0
241,Homer,US,2020-04-20 01:52:25,59.64,-151.55,50.0,66,90,5.82,overcast clouds,0.0,0.0
242,Moree,AU,2020-04-20 01:52:25,-29.47,149.85,69.8,32,91,12.75,overcast clouds,0.0,0.0
243,Cap Malheureux,MU,2020-04-20 01:52:25,-19.98,57.61,77.0,83,75,12.75,broken clouds,0.0,0.0
244,Port Lincoln,AU,2020-04-20 01:52:26,-34.73,135.87,62.82,57,93,14.23,overcast clouds,0.0,0.0
245,Santa Rosa,PH,2020-04-20 01:52:26,14.31,121.11,91.99,52,20,3.36,few clouds,0.0,0.0
246,Deputatskiy,RU,2020-04-20 01:52:26,69.3,139.9,9.95,87,26,6.2,scattered clouds,0.0,0.0
247,Fortuna,US,2020-04-20 01:52:26,40.6,-124.16,53.01,81,90,8.05,overcast clouds,0.0,0.0
248,Kropotkin,RU,2020-04-20 01:52:26,45.44,40.58,47.93,67,90,3.96,overcast clouds,0.0,0.0
249,Juneau,US,2020-04-20 01:52:27,58.3,-134.42,62.6,36,75,12.75,broken clouds,0.0,0.0
250,Lata,PT,2020-04-20 01:52:27,40.16,-8.33,53.01,90,100,1.92,overcast clouds,0.0,0.0
251,Nemuro,JP,2020-04-20 01:48:55,43.32,145.57,41.0,75,75,11.41,mist,0.0,0.0
252,Baker City,US,2020-04-20 01:52:27,44.77,-117.83,64.4,48,1,5.82,clear sky,0.0,0.0
253,Caravelas,BR,2020-04-20 01:52:28,-17.71,-39.25,74.89,78,15,13.18,few clouds,0.0,0.0
254,Mabai,CN,2020-04-20 01:52:28,23.01,104.45,70.74,50,88,6.55,light rain,0.17,0.0
255,Rawson,AR,2020-04-20 01:52:28,-43.3,-65.1,60.03,40,41,23.94,scattered clouds,0.0,0.0
256,Trenggalek,ID,2020-04-20 01:52:28,-8.05,111.72,85.78,66,100,3.71,overcast clouds,0.0,0.0
257,Matara,LK,2020-04-20 01:52:29,5.95,80.54,84.72,73,1,8.21,clear sky,0.0,0.0
258,Nouakchott,MR,2020-04-20 01:52:29,18.09,-15.98,68.0,77,0,14.99,clear sky,0.0,0.0
259,Namibe,AO,2020-04-20 01:52:29,-15.2,12.15,74.39,73,74,1.28,light rain,1.97,0.0
260,Motygino,RU,2020-04-20 01:52:29,58.18,94.76,41.14,55,4,11.65,clear sky,0.0,0.0
261,Acajutla,SV,2020-04-20 01:52:30,13.59,-89.83,73.0,96,8,3.0,clear sky,0.0,0.0
262,Babu,CN,2020-04-20 01:52:30,24.42,111.52,76.14,75,89,3.04,overcast clouds,0.0,0.0
263,Dunedin,NZ,2020-04-20 01:52:30,-45.87,170.5,60.01,34,82,5.01,broken clouds,0.0,0.0
264,Hualmay,PE,2020-04-20 01:52:30,-11.1,-77.61,70.05,78,6,7.16,clear sky,0.0,0.0
265,Kokopo,PG,2020-04-20 01:52:12,-4.35,152.26,83.44,78,100,4.56,light rain,1.51,0.0
266,Juxtlahuaca,MX,2020-04-20 01:52:31,17.43,-99.15,69.24,56,18,5.44,few clouds,0.0,0.0
267,San Andres,CO,2020-04-20 01:52:31,12.58,-81.7,82.4,74,20,6.93,few clouds,0.0,0.0
268,Kastornoye,RU,2020-04-20 01:52:31,51.83,38.13,36.34,87,100,2.98,light snow,0.0,0.94
269,Hambantota,LK,2020-04-20 01:52:31,6.12,81.12,84.2,76,5,11.68,clear sky,0.0,0.0
270,Van,TR,2020-04-20 01:52:32,38.49,43.38,39.2,93,20,4.7,few clouds,0.0,0.0
271,Kaitangata,NZ,2020-04-20 01:52:32,-46.28,169.85,60.01,42,79,8.99,broken clouds,0.0,0.0
272,Seoul,KR,2020-04-20 01:52:32,37.57,126.98,55.4,66,90,3.36,overcast clouds,0.0,0.0
273,Hirara,JP,2020-04-20 01:52:33,24.8,125.28,73.4,88,75,13.87,broken clouds,0.0,0.0
274,Aksu,CN,2020-04-20 01:52:33,41.12,80.26,57.87,40,96,1.54,overcast clouds,0.0,0.0
275,Santa Vitoria Do Palmar,BR,2020-04-20 01:52:33,-33.52,-53.37,64.8,85,0,10.4,clear sky,0.0,0.0
276,Zyryanovsk,KZ,2020-04-20 01:52:33,49.74,84.27,52.02,40,0,2.33,clear sky,0.0,0.0
277,Monrovia,LR,2020-04-20 01:48:55,6.3,-10.8,78.8,94,40,4.21,scattered clouds,0.0,0.0
278,Cockburn Town,TC,2020-04-20 01:52:34,21.46,-71.14,79.21,84,38,17.52,scattered clouds,0.0,0.0
279,Colomi,BO,2020-04-20 01:52:34,-17.35,-65.87,62.6,48,40,5.82,scattered clouds,0.0,0.0
280,Gouyave,GD,2020-04-20 01:52:34,12.16,-61.73,80.6,78,20,16.11,few clouds,0.0,0.0
281,Atambua,ID,2020-04-20 01:52:35,-9.11,124.89,82.4,58,27,2.37,scattered clouds,0.0,0.0
282,Santana,BR,2020-04-20 01:52:35,-0.06,-51.18,82.4,100,40,3.36,scattered clouds,0.0,0.0
283,Nouadhibou,MR,2020-04-20 01:52:35,20.93,-17.03,66.2,68,0,23.04,sand,0.0,0.0
284,Aborlan,PH,2020-04-20 01:52:35,9.44,118.55,89.6,62,20,6.93,few clouds,0.0,0.0
285,Yulara,AU,2020-04-20 01:52:36,-25.24,130.99,86.0,28,24,13.87,few clouds,0.0,0.0
286,Narsaq,GL,2020-04-20 01:52:36,60.92,-46.05,24.8,41,1,6.93,clear sky,0.0,0.0
287,Abreu E Lima,BR,2020-04-20 01:49:21,-7.91,-34.9,80.6,83,40,6.93,thunderstorm,0.0,0.0
288,Nizhniy Tsasuchey,RU,2020-04-20 01:52:36,50.52,115.13,28.06,57,100,22.15,overcast clouds,0.0,0.0
289,Karratha,AU,2020-04-20 01:52:37,-20.74,116.85,87.69,51,95,9.84,overcast clouds,0.0,0.0
290,Hofn,IS,2020-04-20 01:52:37,64.25,-15.21,44.28,86,99,8.84,overcast clouds,0.0,0.0
291,Richards Bay,ZA,2020-04-20 01:48:40,-28.78,32.04,66.87,80,0,8.88,clear sky,0.0,0.0
292,Labuhan,ID,2020-04-20 01:52:38,-6.88,112.21,88.03,65,43,2.51,scattered clouds,0.0,0.0
293,Pervomayskoye,RU,2020-04-20 01:52:38,43.92,46.71,51.49,67,43,4.07,scattered clouds,0.0,0.0
294,Ketchikan,US,2020-04-20 01:52:38,55.34,-131.65,48.2,81,90,16.11,overcast clouds,0.0,0.0
295,Rocha,UY,2020-04-20 01:52:38,-34.48,-54.33,59.86,83,0,6.62,clear sky,0.0,0.0
296,Kyabram,AU,2020-04-20 01:52:38,-36.32,145.05,71.01,33,100,14.5,overcast clouds,0.0,0.0
297,Ijui,BR,2020-04-20 01:52:39,-28.39,-53.91,69.8,52,0,6.93,clear sky,0.0,0.0
298,Bembereke,BJ,2020-04-20 01:52:39,10.23,2.66,76.57,66,100,8.14,overcast clouds,0.0,0.0
299,Northam,GB,2020-04-20 01:52:39,51.03,-4.22,48.99,81,100,11.01,overcast clouds,0.0,0.0
300,Zhoucheng,CN,2020-04-20 01:52:39,35.91,116.31,63.81,27,20,14.92,few clouds,0.0,0.0
301,Anadyr,RU,2020-04-20 01:52:40,64.75,177.48,19.4,85,20,6.71,few clouds,0.0,0.0
302,Contamana,PE,2020-04-20 01:52:40,-7.33,-75.02,71.38,67,3,1.1,clear sky,0.0,0.0
303,Ormara,PK,2020-04-20 01:52:40,25.21,64.64,79.81,75,35,9.98,scattered clouds,0.0,0.0
304,Bambanglipuro,ID,2020-04-20 01:52:40,-7.95,110.28,86.45,66,83,1.25,broken clouds,0.0,0.0
305,Isangel,VU,2020-04-20 01:52:40,-19.55,169.27,79.81,82,100,14.52,light rain,2.13,0.0
306,San Jeronimo,PE,2020-04-20 01:52:41,-11.95,-75.28,45.19,28,60,1.41,broken clouds,0.0,0.0
307,Manzanillo,CU,2020-04-20 01:52:41,20.34,-77.12,77.79,81,53,2.21,light rain,0.27,0.0
308,Clarksburg,US,2020-04-20 01:52:41,39.28,-80.34,57.2,35,90,2.21,overcast clouds,0.0,0.0
309,Armenia,AM,2020-04-20 01:52:41,40.0,45.0,48.2,76,0,6.93,clear sky,0.0,0.0
310,Talnakh,RU,2020-04-20 01:52:42,69.49,88.4,37.4,74,99,29.08,overcast clouds,0.0,0.0
311,Iwanai,JP,2020-04-20 01:52:42,42.97,140.51,46.2,66,100,10.98,overcast clouds,0.0,0.0
312,Pevek,RU,2020-04-20 01:52:42,69.7,170.31,12.63,94,100,7.56,light snow,0.0,0.2
313,Alice Springs,AU,2020-04-20 01:52:42,-23.7,133.88,95.0,17,53,19.46,broken clouds,0.0,0.0
314,Rajbiraj,NP,2020-04-20 01:52:43,26.53,86.75,89.15,32,28,14.09,scattered clouds,0.0,0.0
315,Kavaratti,IN,2020-04-20 01:52:43,10.57,72.64,85.66,68,71,6.06,broken clouds,0.0,0.0
316,Belyy Yar,RU,2020-04-20 01:52:43,53.6,91.39,46.4,45,4,4.47,clear sky,0.0,0.0
317,Santa Rosalia,MX,2020-04-20 01:52:43,27.32,-112.28,69.6,44,92,4.52,overcast clouds,0.0,0.0
318,Rantepao,ID,2020-04-20 01:50:52,-2.97,119.9,84.22,42,0,3.29,clear sky,0.0,0.0
319,Imeni Poliny Osipenko,RU,2020-04-20 01:52:44,52.42,136.49,28.47,92,100,16.22,light snow,0.0,0.25
320,Plettenberg Bay,ZA,2020-04-20 01:52:44,-34.05,23.37,64.63,66,0,2.33,clear sky,0.0,0.0
321,Riyadh,SA,2020-04-20 01:50:22,24.69,46.72,73.4,53,100,2.24,light rain,1.56,0.0
322,Karpathos,GR,2020-04-20 01:52:45,35.51,27.21,55.4,93,6,4.7,clear sky,0.0,0.0
323,Lavrentiya,RU,2020-04-20 01:52:45,65.58,-171.0,19.63,92,100,7.83,overcast clouds,0.0,0.0
324,Mitchell,US,2020-04-20 01:52:45,43.71,-98.03,48.2,57,75,9.17,broken clouds,0.0,0.0
325,Herat,AF,2020-04-20 01:52:45,34.5,62.0,53.6,71,0,3.36,clear sky,0.0,0.0
326,Minab,IR,2020-04-20 01:52:45,27.15,57.08,75.2,83,98,2.24,mist,0.0,0.0
327,Ulladulla,AU,2020-04-20 01:52:46,-35.35,150.47,63.0,59,100,8.05,overcast clouds,0.0,0.0
328,Carutapera,BR,2020-04-20 01:52:46,-1.2,-46.02,79.12,85,37,6.49,scattered clouds,0.0,0.0
329,Ongandjera,NA,2020-04-20 01:52:46,-17.88,15.07,72.1,49,98,4.14,overcast clouds,0.0,0.0
330,Noyabrsk,RU,2020-04-20 01:52:46,63.2,75.45,41.38,69,0,13.73,clear sky,0.0,0.0
331,Kiruna,SE,2020-04-20 01:52:47,67.86,20.23,39.2,69,100,6.22,overcast clouds,0.0,0.0
332,Nalut,LY,2020-04-20 01:52:47,30.33,10.85,64.06,44,75,27.72,broken clouds,0.0,0.0
333,Derzhavinsk,KZ,2020-04-20 01:52:47,51.1,66.32,58.1,52,92,13.33,overcast clouds,0.0,0.0
334,Itaqui,BR,2020-04-20 01:52:48,-29.13,-56.55,65.57,59,0,5.84,clear sky,0.0,0.0
335,Gravelbourg,CA,2020-04-20 01:52:48,49.88,-106.55,43.36,53,81,3.36,broken clouds,0.0,0.0
336,Saint-Augustin,CA,2020-04-20 01:52:48,51.23,-58.65,28.54,98,100,17.11,snow,0.0,3.19
337,Sainte-Marie,RE,2020-04-20 01:52:49,-20.9,55.55,75.2,78,19,14.99,light rain,0.12,0.0
338,Haines Junction,CA,2020-04-20 01:52:49,60.75,-137.51,43.29,58,74,8.57,broken clouds,0.0,0.0
339,Yichang,CN,2020-04-20 01:52:49,30.71,111.28,59.61,79,100,5.06,moderate rain,5.23,0.0
340,Barahona,DO,2020-04-20 01:52:50,18.21,-71.1,77.77,78,14,5.14,few clouds,0.0,0.0
341,Puerto Ayora,EC,2020-04-20 01:52:50,-0.74,-90.35,80.01,85,50,7.0,scattered clouds,0.0,0.0
342,Hopelchen,MX,2020-04-20 01:52:50,19.77,-89.85,84.56,51,0,5.75,clear sky,0.0,0.0
343,Menongue,AO,2020-04-20 01:52:51,-14.66,17.69,60.19,60,73,3.96,broken clouds,0.0,0.0
344,Winton,US,2020-04-20 01:52:51,37.39,-120.61,73.4,38,1,5.82,clear sky,0.0,0.0
345,Patitirion,GR,2020-04-20 01:52:51,39.15,23.87,63.0,51,28,3.47,scattered clouds,0.0,0.0
346,Imola,IT,2020-04-20 01:52:52,44.35,11.72,59.0,88,100,6.89,light rain,0.91,0.0
347,Futtsu,JP,2020-04-20 01:52:52,35.31,139.82,50.0,93,75,6.93,light intensity shower rain,0.0,0.0
348,Ballina,AU,2020-04-20 01:52:53,-28.87,153.57,77.0,38,64,9.17,broken clouds,0.0,0.0
349,Huangchuan,CN,2020-04-20 01:52:53,32.13,115.04,64.22,60,99,9.13,overcast clouds,0.0,0.0
350,Naryan-Mar,RU,2020-04-20 01:52:53,67.67,53.09,30.79,98,95,6.91,overcast clouds,0.0,0.0
351,Aksum,ET,2020-04-20 01:52:54,14.12,38.72,62.62,14,100,3.89,overcast clouds,0.0,0.0
352,Alcantara,BR,2020-04-20 01:52:54,-2.41,-44.41,78.8,94,40,3.36,scattered clouds,0.0,0.0
353,Upernavik,GL,2020-04-20 01:52:55,72.79,-56.15,23.4,88,66,47.96,light snow,0.0,0.27
354,Nanakuli,US,2020-04-20 01:52:55,21.39,-158.15,80.01,69,75,6.93,broken clouds,0.0,0.0
355,Helena,US,2020-04-20 01:49:50,46.59,-112.04,57.2,30,1,16.11,clear sky,0.0,0.0
356,Ixtapa,MX,2020-04-20 01:49:29,20.7,-105.2,75.2,78,40,11.41,scattered clouds,0.0,0.0
357,Moranbah,AU,2020-04-20 01:48:28,-22.0,148.05,87.85,30,87,2.48,overcast clouds,0.0,0.0
358,Alekseyevsk,RU,2020-04-20 01:52:56,57.84,108.35,30.07,76,45,7.27,scattered clouds,0.0,0.0
359,Mitsamiouli,KM,2020-04-20 01:52:56,-11.38,43.28,82.76,72,50,15.19,light rain,0.23,0.0
360,Petersberg,DE,2020-04-20 01:52:02,50.56,9.71,42.01,59,0,8.46,clear sky,0.0,0.0
361,Salekhard,RU,2020-04-20 01:52:57,66.53,66.6,33.6,98,100,3.62,overcast clouds,0.0,0.0
362,Limbang,MY,2020-04-20 01:52:57,4.75,115.0,86.0,79,75,3.36,broken clouds,0.0,0.0
363,Vikesa,NO,2020-04-20 01:52:58,58.64,6.09,41.0,86,0,3.36,clear sky,0.0,0.0
364,Tekirdag,TR,2020-04-20 01:52:58,40.98,27.51,50.0,87,100,4.43,overcast clouds,0.0,0.0
365,Vestmanna,FO,2020-04-20 01:52:58,62.16,-7.17,42.8,93,4,18.34,clear sky,0.0,0.0
366,Brae,GB,2020-04-20 01:52:58,60.4,-1.35,44.6,81,0,13.87,clear sky,0.0,0.0
367,Puerto Escondido,MX,2020-04-20 01:52:59,15.85,-97.07,78.98,71,17,1.54,few clouds,0.0,0.0
368,Najran,SA,2020-04-20 01:52:59,17.49,44.13,69.8,68,75,2.24,broken clouds,0.0,0.0
369,Meadow Lake,US,2020-04-20 01:52:59,34.8,-106.54,69.8,15,75,19.46,broken clouds,0.0,0.0
370,Wamba,NG,2020-04-20 01:52:59,8.93,8.6,73.96,73,99,3.89,overcast clouds,0.0,0.0
371,Kontagora,NG,2020-04-20 01:53:00,10.4,5.47,80.2,62,100,7.96,overcast clouds,0.0,0.0
372,Vao,NC,2020-04-20 01:53:00,-22.67,167.48,73.98,91,100,14.85,heavy intensity rain,13.27,0.0
373,Alta Floresta,BR,2020-04-20 01:53:00,-9.88,-56.09,71.78,87,100,1.43,light rain,1.39,0.0
374,Rio Gallegos,AR,2020-04-20 01:53:00,-51.62,-69.22,42.8,60,63,21.92,broken clouds,0.0,0.0
375,Noumea,NC,2020-04-20 01:53:01,-22.28,166.46,78.01,94,100,9.17,moderate rain,0.0,0.0
376,Tornio,FI,2020-04-20 01:53:01,65.85,24.15,35.6,91,100,2.24,overcast clouds,0.0,0.0
377,Lubbock,US,2020-04-20 01:51:57,33.6,-101.83,75.2,17,20,4.7,few clouds,0.0,0.0
378,Kahului,US,2020-04-20 01:53:01,20.89,-156.47,82.4,51,40,12.75,scattered clouds,0.0,0.0
379,Porto Novo,BJ,2020-04-20 01:53:02,6.5,2.6,80.87,78,100,5.35,overcast clouds,0.0,0.0
380,Samarinda,ID,2020-04-20 01:53:02,-0.5,117.15,75.36,96,100,3.13,moderate rain,4.03,0.0
381,Arlit,NE,2020-04-20 01:49:10,18.74,7.39,83.53,12,1,9.15,clear sky,0.0,0.0
382,Xuanhua,CN,2020-04-20 01:51:57,40.61,115.04,45.12,31,0,32.41,clear sky,0.0,0.0
383,Arenapolis,BR,2020-04-20 01:53:03,-14.45,-56.85,73.09,82,5,0.87,clear sky,0.0,0.0
384,Garowe,SO,2020-04-20 01:53:03,8.41,48.48,76.35,70,74,8.08,broken clouds,0.0,0.0
385,Eyl,SO,2020-04-20 01:53:04,7.98,49.82,83.28,72,98,6.33,overcast clouds,0.0,0.0
386,Pandan,PH,2020-04-20 01:53:04,14.05,124.17,83.01,73,99,4.47,overcast clouds,0.0,0.0
387,Guhagar,IN,2020-04-20 01:53:04,17.48,73.19,89.08,52,47,3.02,scattered clouds,0.0,0.0
388,Churapcha,RU,2020-04-20 01:53:05,62.0,132.43,20.19,84,0,5.93,clear sky,0.0,0.0
389,Domoni,KM,2020-04-20 01:53:05,-12.26,44.53,82.26,72,44,10.98,light rain,0.8,0.0
390,Vardo,NO,2020-04-20 01:53:05,70.37,31.11,39.24,89,100,25.08,light rain,1.15,0.0
391,Laguna,US,2020-04-20 01:53:05,38.42,-121.42,66.99,48,1,5.82,clear sky,0.0,0.0
392,Mamallapuram,IN,2020-04-20 01:53:06,12.63,80.17,84.0,83,40,2.24,mist,0.0,0.0
393,Alghero,IT,2020-04-20 01:53:06,40.56,8.32,60.8,100,20,5.82,light rain,0.0,0.0
394,Troitskoye,RU,2020-04-20 01:53:06,52.98,84.68,56.12,46,94,1.43,overcast clouds,0.0,0.0
395,Tual,ID,2020-04-20 01:53:07,-5.67,132.75,84.9,72,23,4.81,moderate rain,3.08,0.0
396,San Rafael,AR,2020-04-20 01:53:07,-34.62,-68.33,63.34,39,12,2.75,few clouds,0.0,0.0
397,Kandrian,PG,2020-04-20 01:53:07,-6.22,149.55,84.85,75,29,5.75,light rain,2.06,0.0
398,Luderitz,NA,2020-04-20 01:53:07,-26.65,15.16,59.0,87,8,3.36,clear sky,0.0,0.0
399,Kalmunai,LK,2020-04-20 01:53:08,7.42,81.82,85.73,71,28,7.11,light rain,0.5,0.0
400,Chara,RU,2020-04-20 01:53:08,56.91,118.26,17.49,71,100,7.09,overcast clouds,0.0,0.0
401,Beloha,MG,2020-04-20 01:53:09,-25.17,45.05,70.11,80,1,14.61,clear sky,0.0,0.0
402,Maputo,MZ,2020-04-20 01:53:09,-25.97,32.59,66.2,88,7,6.93,clear sky,0.0,0.0
403,Coquimbo,CL,2020-04-20 01:53:09,-29.95,-71.34,59.0,93,90,2.24,overcast clouds,0.0,0.0
404,Vostok,RU,2020-04-20 01:53:10,46.49,135.88,47.57,39,100,9.64,overcast clouds,0.0,0.0
405,Makuyuni,TZ,2020-04-20 01:53:10,-4.73,38.1,69.6,76,99,1.92,light rain,0.84,0.0
406,Tres Barras,BR,2020-04-20 01:53:10,-26.11,-50.32,53.4,77,25,2.35,scattered clouds,0.0,0.0
407,Awbari,LY,2020-04-20 01:53:11,26.59,12.78,80.02,16,91,18.05,overcast clouds,0.0,0.0
408,Brignoles,FR,2020-04-20 01:53:11,43.4,6.07,55.0,91,100,4.76,light rain,0.92,0.0
409,Sebrovo,RU,2020-04-20 01:53:11,50.1,43.3,40.69,79,66,5.1,broken clouds,0.0,0.0
410,Dafeng,CN,2020-04-20 01:53:12,23.45,108.59,78.71,74,100,6.04,overcast clouds,0.0,0.0
411,Kununurra,AU,2020-04-20 01:53:12,-15.77,128.73,93.2,46,10,4.7,clear sky,0.0,0.0
412,Arica,CL,2020-04-20 01:53:12,-18.48,-70.3,66.2,72,34,2.24,scattered clouds,0.0,0.0
413,Mar Del Plata,AR,2020-04-20 01:53:12,-38.0,-57.56,64.0,87,98,3.36,overcast clouds,0.0,0.0
414,Neftcala,AZ,2020-04-20 01:53:13,39.37,49.25,56.89,81,36,5.68,scattered clouds,0.0,0.0
415,Suntar,RU,2020-04-20 01:53:13,62.14,117.63,27.66,89,100,5.68,overcast clouds,0.0,0.0
416,Lanzhou,CN,2020-04-20 01:53:14,36.06,103.79,52.0,27,100,8.95,overcast clouds,0.0,0.0
417,Shache,CN,2020-04-20 01:53:14,38.42,77.24,56.61,47,99,3.83,light rain,0.31,0.0
418,Port-Gentil,GA,2020-04-20 01:53:14,-0.72,8.78,79.81,83,100,3.0,light rain,0.68,0.0
419,Nabire,ID,2020-04-20 01:53:14,-3.37,135.48,89.24,61,80,1.92,light rain,0.12,0.0
420,Tabuk,PH,2020-04-20 01:53:15,17.42,121.44,87.73,60,99,5.95,overcast clouds,0.0,0.0
421,Foz,ES,2020-04-20 01:53:15,43.57,-7.25,50.0,1,67,2.53,broken clouds,0.0,0.0
422,Havoysund,NO,2020-04-20 01:53:15,71.0,24.66,39.2,93,75,43.62,broken clouds,0.0,0.0
423,Ahipara,NZ,2020-04-20 01:53:15,-35.17,173.17,64.58,90,100,5.86,moderate rain,4.35,0.0
424,Singaparna,ID,2020-04-20 01:53:16,-7.35,108.11,86.25,54,37,2.95,scattered clouds,0.0,0.0
425,Plouzane,FR,2020-04-20 01:52:14,48.38,-4.62,51.8,87,100,8.05,light rain,0.13,0.0
426,Vredendal,ZA,2020-04-20 01:53:16,-31.67,18.5,62.31,76,100,6.73,overcast clouds,0.0,0.0
427,Port Hardy,CA,2020-04-20 01:53:17,50.7,-127.42,53.6,71,20,10.29,few clouds,0.0,0.0
428,Narrabri,AU,2020-04-20 01:53:17,-30.32,149.78,69.8,35,57,3.36,broken clouds,0.0,0.0
429,Saquena,PE,2020-04-20 01:53:17,-4.67,-73.52,72.66,77,16,0.58,few clouds,0.0,0.0
430,Shimoda,JP,2020-04-20 01:53:17,34.67,138.95,53.6,93,75,13.87,light intensity shower rain,0.0,0.0
431,Damavand,IR,2020-04-20 01:53:18,35.72,52.06,59.0,41,0,0.65,clear sky,0.0,0.0
432,Solnechnoye,RU,2020-04-20 01:53:18,43.28,46.51,41.0,93,0,4.47,clear sky,0.0,0.0
433,Darhan,MN,2020-04-20 01:53:18,49.49,105.92,31.64,57,98,12.21,light snow,0.0,0.22
434,Cabo San Lucas,MX,2020-04-20 01:48:47,22.89,-109.91,73.99,49,5,5.82,clear sky,0.0,0.0
435,Bunia,CD,2020-04-20 01:53:19,1.57,30.25,63.68,67,100,0.69,overcast clouds,0.0,0.0
436,Kattivakkam,IN,2020-04-20 01:53:19,13.22,80.32,84.0,83,40,2.24,mist,0.0,0.0
437,Rio Tuba,PH,2020-04-20 01:53:19,8.51,117.43,85.06,69,100,5.59,light rain,1.37,0.0
438,Xapuri,BR,2020-04-20 01:53:20,-10.65,-68.5,70.72,69,0,1.34,clear sky,0.0,0.0
439,Novolugovoye,RU,2020-04-20 01:53:20,54.98,83.11,44.6,56,0,0.58,smoke,0.0,0.0
440,Semey,KZ,2020-04-20 01:53:20,50.41,80.23,46.4,70,0,2.24,clear sky,0.0,0.0
441,Darnah,LY,2020-04-20 01:49:03,32.77,22.64,60.4,65,99,6.78,overcast clouds,0.0,0.0
442,Liyang,CN,2020-04-20 01:53:21,29.71,118.29,62.01,90,66,0.56,broken clouds,0.0,0.0
443,Chapais,CA,2020-04-20 01:53:21,49.78,-74.85,14.0,61,1,8.05,clear sky,0.0,0.0
444,Parker,US,2020-04-20 01:53:21,32.77,-97.8,69.01,77,0,1.01,clear sky,0.0,0.0
445,Forest,US,2020-04-20 01:53:22,37.36,-79.29,55.99,66,40,4.7,scattered clouds,0.0,0.0
446,Camalu,MX,2020-04-20 01:53:22,30.85,-116.07,57.99,56,68,8.01,broken clouds,0.0,0.0
447,San Cristobal,VE,2020-04-20 01:50:21,7.77,-72.22,67.6,63,98,1.95,light rain,0.7,0.0
448,Trzcianka,PL,2020-04-20 01:53:22,53.04,16.46,34.27,86,0,5.19,clear sky,0.0,0.0
449,Salvador,SV,2020-04-20 01:53:23,13.83,-88.92,82.4,74,40,3.36,haze,0.0,0.0
450,Ponta Delgada,PT,2020-04-20 01:53:23,37.73,-25.67,55.4,66,20,10.29,few clouds,0.0,0.0
451,Yenagoa,NG,2020-04-20 01:53:23,4.92,6.26,76.26,88,100,1.5,overcast clouds,0.0,0.0
452,Sinnamary,GF,2020-04-20 01:53:24,5.38,-52.95,78.67,86,100,14.65,moderate rain,5.45,0.0
453,Sisimiut,GL,2020-04-20 01:53:24,66.94,-53.67,25.88,89,90,18.84,overcast clouds,0.0,0.0
454,Egvekinot,RU,2020-04-20 01:53:24,66.32,-179.17,12.56,90,92,12.8,overcast clouds,0.0,0.0
455,San Pedro,PH,2020-04-20 01:53:25,14.35,121.02,91.99,52,20,3.36,few clouds,0.0,0.0
456,Begichevskiy,RU,2020-04-20 01:53:25,53.8,38.26,37.0,62,100,3.58,overcast clouds,0.0,0.0
457,Macomb,US,2020-04-20 01:53:25,40.46,-90.67,53.01,46,1,5.82,clear sky,0.0,0.0
458,Los Llanos De Aridane,ES,2020-04-20 01:53:26,28.66,-17.92,62.6,67,1,5.82,clear sky,0.0,0.0
459,Impfondo,CG,2020-04-20 01:53:26,1.64,18.07,71.26,87,96,1.66,overcast clouds,0.0,0.0
460,Ivnya,RU,2020-04-20 01:53:27,51.06,36.13,37.4,69,95,6.71,overcast clouds,0.0,0.0
461,Wroclaw,PL,2020-04-20 01:53:27,51.1,17.03,39.2,55,0,4.7,clear sky,0.0,0.0
462,Nome,US,2020-04-20 01:49:28,64.5,-165.41,36.0,93,1,5.82,clear sky,0.0,0.0
463,Port Augusta,AU,2020-04-20 01:53:28,-32.5,137.77,69.8,60,40,10.29,scattered clouds,0.0,0.0
464,Smithfield,US,2020-04-20 01:49:04,41.92,-71.55,51.01,66,1,10.29,clear sky,0.0,0.0
465,Cayenne,GF,2020-04-20 01:53:28,4.93,-52.33,77.0,100,100,6.93,mist,0.0,0.0
466,Batemans Bay,AU,2020-04-20 01:53:28,-35.72,150.18,64.99,52,100,1.01,overcast clouds,0.0,0.0
467,Miandoab,IR,2020-04-20 01:53:29,36.97,46.1,52.0,49,30,2.59,scattered clouds,0.0,0.0
468,Bonavista,CA,2020-04-20 01:53:00,48.65,-53.11,32.25,98,100,30.91,snow,0.0,7.89
469,Margherita,IN,2020-04-20 01:53:04,27.28,95.68,68.0,94,75,12.75,mist,0.0,0.0
470,Bluefield,US,2020-04-20 01:53:30,37.27,-81.22,57.2,35,90,4.7,overcast clouds,0.0,0.0
471,Sao Filipe,CV,2020-04-20 01:53:30,14.9,-24.5,71.49,72,1,16.69,clear sky,0.0,0.0
472,Sobolevo,RU,2020-04-20 01:53:30,54.43,31.9,30.4,95,5,8.72,clear sky,0.0,0.0
473,Daru,PG,2020-04-20 01:53:31,-9.08,143.21,83.68,79,54,9.33,light rain,1.03,0.0
474,Goure,NE,2020-04-20 01:53:31,13.98,10.27,74.88,16,80,3.58,broken clouds,0.0,0.0
475,Hobyo,SO,2020-04-20 01:53:31,5.35,48.53,84.11,74,100,7.49,overcast clouds,0.0,0.0
476,Methoni,GR,2020-04-20 01:53:31,36.82,21.7,59.0,93,91,3.36,overcast clouds,0.0,0.0
477,Pangody,RU,2020-04-20 01:53:31,65.85,74.49,33.08,93,85,12.73,overcast clouds,0.0,0.0
478,Saint-Louis,SN,2020-04-20 01:53:32,16.33,-15.0,69.84,44,0,10.25,clear sky,0.0,0.0
479,Muravlenko,RU,2020-04-20 01:53:32,63.79,74.52,37.78,77,0,14.43,clear sky,0.0,0.0
480,Palestine,PS,2020-04-20 01:53:32,31.92,35.2,66.99,88,40,8.05,scattered clouds,0.0,0.0
481,Conde,BR,2020-04-20 01:53:32,-7.26,-34.91,77.0,94,65,2.24,light rain,2.49,0.0
482,Asfi,MA,2020-04-20 01:53:33,32.3,-9.24,59.07,79,8,3.24,clear sky,0.0,0.0
483,Tutoia,BR,2020-04-20 01:53:33,-2.76,-42.27,78.98,85,53,4.52,broken clouds,0.0,0.0
484,Udachnyy,RU,2020-04-20 01:53:33,66.42,112.4,28.4,33,30,4.47,scattered clouds,0.0,0.0
485,Lompoc,US,2020-04-20 01:53:33,34.64,-120.46,59.0,71,75,10.29,broken clouds,0.0,0.0
486,Honiara,SB,2020-04-20 01:49:43,-9.43,159.95,87.8,66,20,4.7,few clouds,0.0,0.0
487,Nyurba,RU,2020-04-20 01:53:34,63.28,118.33,27.68,90,99,5.44,overcast clouds,0.0,0.0
488,Araouane,ML,2020-04-20 01:48:50,18.9,-3.53,79.32,18,0,15.21,clear sky,0.0,0.0
489,Broome,US,2020-04-20 01:53:34,42.25,-75.83,46.4,70,90,11.41,overcast clouds,0.0,0.0
490,Acultzingo,MX,2020-04-20 01:53:34,18.72,-97.32,77.0,44,68,0.83,light rain,0.52,0.0
491,Nador,MA,2020-04-20 01:50:38,35.17,-2.93,62.6,67,0,18.34,clear sky,0.0,0.0
492,Ilulissat,GL,2020-04-20 01:53:35,69.22,-51.1,30.2,46,100,19.46,overcast clouds,0.0,0.0
493,Killybegs,IE,2020-04-20 01:53:35,54.63,-8.45,46.99,75,4,1.99,clear sky,0.0,0.0
494,Maniwaki,CA,2020-04-20 01:53:35,46.38,-75.97,25.25,93,45,7.56,scattered clouds,0.0,0.0
495,Novikovo,RU,2020-04-20 01:53:35,51.15,37.89,37.31,84,93,5.53,overcast clouds,0.0,0.0
496,Srednekolymsk,RU,2020-04-20 01:53:36,67.45,153.68,16.23,94,100,11.86,light snow,0.0,0.18
497,Kibre Mengist,ET,2020-04-20 01:53:36,5.88,38.98,59.38,60,100,2.98,light rain,0.99,0.0
498,Sokolo,ML,2020-04-20 01:53:36,14.73,-6.12,88.74,31,21,10.04,few clouds,0.0,0.0
499,Lac Du Bonnet,CA,2020-04-20 01:53:36,50.25,-96.06,46.99,49,92,8.99,light rain,0.3,0.0
500,Kuala Terengganu,MY,2020-04-20 01:53:37,5.33,103.14,84.2,79,40,3.36,scattered clouds,0.0,0.0
501,Kulhudhuffushi,MV,2020-04-20 01:53:37,6.62,73.07,86.56,68,28,8.99,scattered clouds,0.0,0.0
502,Qiongshan,CN,2020-04-20 01:53:37,20.01,110.35,84.2,70,20,11.18,few clouds,0.0,0.0
503,Ternate,ID,2020-04-20 01:53:38,0.8,127.4,86.85,63,40,4.81,scattered clouds,0.0,0.0
504,Gondanglegi,ID,2020-04-20 01:53:38,-7.75,112.01,86.11,69,100,3.69,overcast clouds,0.0,0.0
505,Ekibastuz,KZ,2020-04-20 01:53:38,51.67,75.37,64.18,41,28,5.46,scattered clouds,0.0,0.0
506,Verkhnevilyuysk,RU,2020-04-20 01:49:15,63.45,120.32,26.8,90,94,5.19,overcast clouds,0.0,0.0
507,Lerwick,GB,2020-04-20 01:53:38,60.15,-1.15,44.6,81,0,5.82,clear sky,0.0,0.0
508,Angouleme,FR,2020-04-20 01:53:39,45.65,0.15,57.2,93,90,4.7,overcast clouds,0.0,0.0
509,Pocone,BR,2020-04-20 01:53:39,-16.26,-56.62,73.71,85,86,2.04,overcast clouds,0.0,0.0
510,Port Keats,AU,2020-04-20 01:53:39,-14.25,129.55,90.37,51,56,1.54,broken clouds,0.0,0.0
511,Arawa,PG,2020-04-20 01:53:39,-6.21,155.54,84.09,74,97,3.38,light rain,1.72,0.0
512,Nishihara,JP,2020-04-20 01:53:40,26.18,127.76,66.2,93,90,6.93,shower rain,0.0,0.0
513,Chimbote,PE,2020-04-20 01:53:40,-9.09,-78.58,70.25,82,0,6.8,clear sky,0.0,0.0
514,Katangli,RU,2020-04-20 01:53:40,51.71,143.23,38.37,80,100,5.39,overcast clouds,0.0,0.0
515,Qaqortoq,GL,2020-04-20 01:53:40,60.72,-46.03,24.8,41,3,6.93,clear sky,0.0,0.0
516,Progreso,MX,2020-04-20 01:52:08,21.28,-89.67,91.4,49,5,6.93,clear sky,0.0,0.0
517,Lethem,GY,2020-04-20 01:53:41,3.38,-59.8,80.24,70,92,8.59,light rain,1.35,0.0
518,Manggar,ID,2020-04-20 01:53:41,-2.88,108.27,87.39,62,12,3.58,light rain,0.11,0.0
519,Jurado,CO,2020-04-20 01:53:41,7.11,-77.76,77.67,82,95,0.89,overcast clouds,0.0,0.0
520,Natchez,US,2020-04-20 01:53:41,31.56,-91.4,64.4,93,90,1.74,light rain,0.0,0.0
521,Vadum,DK,2020-04-20 01:53:42,57.12,9.86,39.16,72,0,1.81,clear sky,0.0,0.0
522,Tura,IN,2020-04-20 01:53:42,25.52,90.22,79.81,63,97,6.87,light rain,0.11,0.0
523,Petropavlovsk-Kamchatskiy,RU,2020-04-20 01:53:42,53.05,158.65,37.4,25,19,15.66,few clouds,0.0,0.0
524,Kapuskasing,CA,2020-04-20 01:53:43,49.42,-82.43,17.6,40,20,3.36,few clouds,0.0,0.0
525,Hanmer Springs,NZ,2020-04-20 01:53:43,-42.52,172.82,56.34,42,69,5.86,broken clouds,0.0,0.0
526,Sabha,LY,2020-04-20 01:53:43,27.04,14.43,77.22,16,100,18.12,overcast clouds,0.0,0.0
527,Port Blair,IN,2020-04-20 01:53:44,11.67,92.75,84.47,76,46,9.1,light rain,0.68,0.0
528,Mayumba,GA,2020-04-20 01:53:44,-3.43,10.66,78.55,85,100,7.29,light rain,1.75,0.0
529,Kamenka,RU,2020-04-20 01:53:44,51.32,42.77,37.02,86,25,4.9,scattered clouds,0.0,0.0
530,Monte Alegre,BR,2020-04-20 01:53:44,-2.01,-54.07,73.0,97,100,0.51,light rain,0.62,0.0
531,Qena,EG,2020-04-20 01:53:45,26.16,32.72,73.4,49,0,2.98,clear sky,0.0,0.0
532,Xacmaz,AZ,2020-04-20 01:53:45,41.46,48.81,54.48,68,100,2.21,overcast clouds,0.0,0.0
533,Mount Gambier,AU,2020-04-20 01:53:45,-37.83,140.77,62.6,51,40,21.92,scattered clouds,0.0,0.0
534,Axim,GH,2020-04-20 01:53:45,4.87,-2.24,81.27,82,100,6.38,light rain,0.81,0.0
535,Calbuco,CL,2020-04-20 01:53:46,-41.77,-73.13,51.8,93,75,4.7,broken clouds,0.0,0.0
536,Tlaxco,MX,2020-04-20 01:53:46,19.62,-98.12,63.81,31,79,1.28,light rain,1.23,0.0
537,Veraval,IN,2020-04-20 01:53:46,20.9,70.37,84.7,51,0,11.9,clear sky,0.0,0.0
538,Fonte Boa,BR,2020-04-20 01:53:46,-2.5,-66.27,73.8,92,94,1.86,overcast clouds,0.0,0.0
539,Khandyga,RU,2020-04-20 01:53:46,62.67,135.6,20.08,84,7,4.12,clear sky,0.0,0.0
540,Westport,US,2020-04-20 01:53:03,41.14,-73.36,55.0,71,20,14.99,few clouds,0.0,0.0
541,Parksville,CA,2020-04-20 01:53:47,49.32,-124.32,52.5,78,33,3.09,scattered clouds,0.0,0.0
542,Las Vegas,US,2020-04-20 01:53:47,36.17,-115.14,78.8,12,1,19.46,clear sky,0.0,0.0
543,Hasaki,JP,2020-04-20 01:53:48,35.73,140.83,50.0,93,75,12.75,light intensity shower rain,0.0,0.0
544,Faya,SA,2020-04-20 01:53:48,18.39,42.45,66.2,59,98,4.07,light rain,0.97,0.0
545,Balclutha,NZ,2020-04-20 01:53:48,-46.23,169.75,60.01,42,64,11.99,broken clouds,0.0,0.0
546,Kushima,JP,2020-04-20 01:53:48,31.46,131.23,69.8,68,75,20.8,broken clouds,0.0,0.0
547,Changji,CN,2020-04-20 01:53:49,44.02,87.32,62.6,36,0,2.24,clear sky,0.0,0.0
548,Flinders,AU,2020-04-20 01:53:49,-34.58,150.86,64.0,58,98,5.01,overcast clouds,0.0,0.0
549,Bam,IR,2020-04-20 01:53:49,29.11,58.36,70.43,33,100,2.37,overcast clouds,0.0,0.0
550,Bathsheba,BB,2020-04-20 01:53:49,13.22,-59.52,80.6,69,20,17.22,few clouds,0.0,0.0
551,Goshogawara,JP,2020-04-20 01:53:49,40.8,140.44,51.01,61,75,11.41,broken clouds,0.0,0.0
552,Villarrica,PY,2020-04-20 01:53:50,-25.75,-56.43,64.33,70,0,2.93,clear sky,0.0,0.0
553,Praia Da Vitoria,PT,2020-04-20 01:53:50,38.73,-27.07,57.2,62,20,14.0,few clouds,0.0,0.0
554,Turukhansk,RU,2020-04-20 01:53:50,65.82,87.98,40.28,66,100,20.89,overcast clouds,0.0,0.0
555,Muzhi,RU,2020-04-20 01:52:21,65.37,64.67,34.23,98,98,5.37,overcast clouds,0.0,0.0
556,Danielskuil,ZA,2020-04-20 01:53:51,-28.19,23.54,63.55,29,0,7.9,clear sky,0.0,0.0
557,Zhangye,CN,2020-04-20 01:53:51,38.93,100.45,54.03,20,93,4.61,overcast clouds,0.0,0.0
558,Naze,JP,2020-04-20 01:53:51,28.37,129.48,71.6,68,20,14.99,few clouds,0.0,0.0
559,Tuktoyaktuk,CA,2020-04-20 01:53:52,69.45,-133.04,10.4,85,90,9.17,light snow,0.0,0.0
560,Kaka,TM,2020-04-20 01:53:52,37.35,59.61,69.28,33,0,3.29,clear sky,0.0,0.0
561,Inta,RU,2020-04-20 01:53:53,66.03,60.17,34.11,96,100,8.37,light snow,0.0,0.23
562,Hukuntsi,BW,2020-04-20 01:53:53,-24.0,21.75,65.97,30,20,9.78,few clouds,0.0,0.0
563,Soe,ID,2020-04-20 01:53:53,-9.86,124.28,79.12,53,2,5.7,clear sky,0.0,0.0
564,Vermillion,US,2020-04-20 01:53:53,42.78,-96.93,51.01,57,90,11.41,overcast clouds,0.0,0.0
565,Ulaangom,MN,2020-04-20 01:53:54,49.98,92.07,46.17,35,0,3.49,clear sky,0.0,0.0
566,Manicore,BR,2020-04-20 01:53:54,-5.81,-61.3,73.85,95,98,2.17,overcast clouds,0.0,0.0
567,Atikokan,CA,2020-04-20 01:53:54,48.76,-91.62,31.06,75,83,10.69,broken clouds,0.0,0.0
568,Baruun-Urt,MN,2020-04-20 01:53:54,46.68,113.28,26.13,64,92,15.68,light snow,0.0,0.39
569,Krasnaya Gora,RU,2020-04-20 01:53:54,53.0,31.6,30.2,86,0,11.18,clear sky,0.0,0.0
570,Samba,IN,2020-04-20 01:53:55,32.57,75.12,75.56,35,100,3.27,overcast clouds,0.0,0.0
571,Zirandaro,MX,2020-04-20 01:53:55,18.45,-100.98,86.88,41,0,5.35,clear sky,0.0,0.0
572,Lebedyan,RU,2020-04-20 01:53:55,53.02,39.17,33.8,89,40,4.47,scattered clouds,0.0,0.0
573,Jurmala,LV,2020-04-20 01:53:55,56.97,23.77,37.4,93,0,3.36,clear sky,0.0,0.0
574,Buala,SB,2020-04-20 01:53:56,-8.14,159.59,84.38,75,34,7.43,light rain,2.04,0.0
575,Pimentel,PE,2020-04-20 01:53:56,-6.84,-79.93,71.02,81,59,13.42,broken clouds,0.0,0.0
576,Goderich,CA,2020-04-20 01:48:57,43.75,-81.72,37.0,62,0,11.41,clear sky,0.0,0.0
577,Constitucion,CL,2020-04-20 01:49:43,-35.33,-72.42,56.53,67,96,9.28,overcast clouds,0.0,0.0
578,Khonsa,IN,2020-04-20 01:53:57,27.02,95.57,70.83,59,66,2.51,light rain,0.64,0.0
579,Kui Buri,TH,2020-04-20 01:53:57,12.08,99.85,86.0,62,20,3.36,few clouds,0.0,0.0
580,Necochea,AR,2020-04-20 01:49:14,-38.55,-58.74,58.95,77,95,4.83,overcast clouds,0.0,0.0
581,Carnoustie,GB,2020-04-20 01:53:58,56.5,-2.71,44.6,87,20,12.75,few clouds,0.0,0.0
582,Belmonte,BR,2020-04-20 01:53:58,-15.86,-38.88,77.0,73,90,5.82,overcast clouds,0.0,0.0
583,Sambava,MG,2020-04-20 01:53:58,-14.27,50.17,73.31,87,100,5.82,light rain,0.6,0.0
584,Nelson Bay,AU,2020-04-20 01:53:58,-32.72,152.15,70.0,40,100,13.87,overcast clouds,0.0,0.0
585,Karasburg,NA,2020-04-20 01:53:59,-28.02,18.75,65.17,25,1,1.77,clear sky,0.0,0.0
586,Rairangpur,IN,2020-04-20 01:53:59,22.27,86.18,82.4,61,15,3.98,haze,0.0,0.0
587,Turayf,SA,2020-04-20 01:53:59,31.67,38.66,57.2,54,0,6.93,clear sky,0.0,0.0
588,Boguchany,RU,2020-04-20 01:53:59,58.38,97.45,38.93,60,0,8.77,clear sky,0.0,0.0
589,Bridgwater,GB,2020-04-20 01:54:00,51.13,-3.0,46.0,76,77,1.99,broken clouds,0.0,0.0
